"c_p";"direccion";"horario";"latitud";"localidad";"longitud_wgs84";"margen";"municipio";"precio_biodiesel";"precio_bioetanol";"precio_gas_natural_comprimido";"precio_gas_natural_licuado";"precio_gases_licuados_del_petroleo";"precio_gasoleo_a";"precio_gasoleo_b";"precio_gasoleo_premium";"precio_gasolina_95_e10";"precio_gasolina_95_e5";"precio_gasolina_95_e5_premium";"precio_gasolina_98_e10";"precio_gasolina_98_e5";"precio_hidrogeno";"provincia";"remision";"rotulo";"tipo_venta";"percent_bio_etanol";"percent_ester_metilico";"ideess";"id_municipio";"id_provincia";"idccaa";"low_cost"
"02250";"AVENIDA CASTILLA LA MANCHA, 26";"L-D: 07:00-22:00";39.211417;"ABENGIBRE";-1.539167;"D";"Abengibre";NA;NA;NA;NA;NA;1.349;0.879;NA;NA;1.459;NA;NA;NA;NA;"ALBACETE";"dm";"Nº 10.935";"P";0;0;4375;52;"02";"07";TRUE
"02152";"CR CM-332, 46,4";"L-D: 7:00-23:00";39.100389;"ALATOZ";-1.346083;"I";"Alatoz";NA;NA;NA;NA;NA;1.39;NA;1.5;NA;1.519;NA;NA;1.6;NA;"ALBACETE";"dm";"REPSOL";"P";0;0;5122;53;"02";"07";FALSE
"02001";"AVENIDA 1º DE MAYO, S/N";"L-S: 08:00-22:00; D: 09:00-21:00";38.985667;"ALBACETE";-1.8685;"N";"Albacete";NA;NA;NA;NA;NA;1.389;NA;1.419;NA;1.499;NA;NA;1.639;NA;"ALBACETE";"dm";"CARREFOUR";"P";0;0;10765;54;"02";"07";TRUE
"02001";"CALLE FEDERICO GARCIA LORCA, 5";"L-S: 05:00-23:00";38.997722;"ALBACETE";-1.846361;"I";"Albacete";NA;NA;NA;NA;NA;1.389;NA;NA;NA;NA;NA;NA;NA;NA;"ALBACETE";"dm";"CEPSA";"R";0;0;4438;54;"02";"07";FALSE
"02001";"CALLE FEDERICO GARCIA LORCA, 1";"L-D: 24H";39.000861;"ALBACETE";-1.849833;"D";"Albacete";NA;NA;NA;NA;NA;1.259;NA;NA;NA;1.389;NA;NA;NA;NA;"ALBACETE";"dm";"PLENOIL";"P";0;0;13933;54;"02";"07";TRUE
"02001";"CALLE PRINCIPE DE ASTURIAS (POLÍGONO DE ROMICA), 5";"L-D: 06:00-21:30";39.054694;"ALBACETE";-1.832;"I";"Albacete";NA;NA;NA;NA;NA;1.399;NA;1.489;NA;1.499;NA;NA;1.641;NA;"ALBACETE";"OM";"BP ROMICA";"P";0;0;12054;54;"02";"07";TRUE
"02005";"CL PASEO DE LA CUBA, 15";"L-D: 06:00-22:00";38.999722;"ALBACETE";-1.854556;"D";"Albacete";NA;NA;NA;NA;0.819;1.409;NA;1.489;NA;1.519;NA;NA;1.629;NA;"ALBACETE";"OM";"REPSOL";"P";0;0;5195;54;"02";"07";FALSE
"02005";"AVENIDA MENÉNDEZ PIDAL, 58";"L-D: 24H";39.003333;"ALBACETE";-1.864917;"N";"Albacete";NA;NA;NA;NA;NA;1.359;NA;1.439;NA;1.479;NA;NA;1.599;NA;"ALBACETE";"dm";"TAMOS";"P";0;0;4369;54;"02";"07";TRUE
"02005";"PASEO CUBA (LA), 36";"L-D: 06:00-23:00";39.005083;"ALBACETE";-1.859917;"N";"Albacete";NA;NA;NA;NA;0.879;1.359;NA;1.439;NA;1.479;NA;NA;1.599;NA;"ALBACETE";"dm";"CEPSA";"P";0;0;14123;54;"02";"07";FALSE
"02005";"AVENIDA ESCRITOR RODRIGO RUBIO, 3";"L-S: 09:00-21:30";39.006889;"ALBACETE";-1.885361;"D";"Albacete";NA;NA;NA;NA;0.758;1.278;NA;1.358;NA;1.398;NA;NA;NA;NA;"ALBACETE";"dm";"A&A";"P";0;0;15000;54;"02";"07";TRUE
"02002";"CALLE HERMANOS FALCÓ, 2";"L-D: 06:30-22:30";38.98925;"ALBACETE";-1.849028;"D";"Albacete";NA;NA;NA;NA;NA;1.379;NA;1.469;NA;1.499;NA;NA;1.629;NA;"ALBACETE";"dm";"CEPSA";"P";0;0;5313;54;"02";"07";FALSE
"02006";"AVDA. DE LOS TOREROS, S/N";"L-D: 07:00-23:00";38.998222;"ALBACETE";-1.869889;"N";"Albacete";NA;NA;NA;NA;NA;1.309;NA;1.359;NA;1.439;NA;NA;NA;NA;"ALBACETE";"dm";"INPEALSA";"P";0;0;4415;54;"02";"07";TRUE
"02006";"CR N-322, 337,8";"L-D: 06:30-22:00";38.925833;"ALBACETE";-2.031861;"I";"Albacete";NA;NA;NA;NA;NA;1.369;0.765;1.439;NA;1.519;NA;NA;1.659;NA;"ALBACETE";"dm";"REPSOL";"P";0;0;5116;54;"02";"07";FALSE
"02006";"CALLE ALMANSA, 2";"L-D: 06:00-23:00";38.984139;"ALBACETE";-1.847083;"I";"Albacete";NA;NA;NA;NA;NA;1.369;NA;1.455;NA;1.499;NA;NA;1.631;NA;"ALBACETE";"dm";"CEPSA";"P";0;0;4795;54;"02";"07";FALSE
"02006";"CALLE ALCALDE CONANGLA (C.C. EROSKI), S/N";"L-S: 07:00-23:00; D: 08:00-23:00";38.988972;"ALBACETE";-1.847361;"N";"Albacete";NA;NA;NA;NA;NA;1.269;NA;1.309;NA;1.389;NA;NA;1.519;NA;"ALBACETE";"dm";"FAMILY ENERGY";"P";0;0;4428;54;"02";"07";TRUE
"02006";"CARRETERA JAEN KM. 2";"L-D: 24H";38.994667;"ALBACETE";-1.871722;"D";"Albacete";NA;NA;NA;NA;NA;1.399;NA;1.459;NA;1.519;NA;NA;1.629;NA;"ALBACETE";"dm";"REPSOL";"P";0;0;5245;54;"02";"07";FALSE
"02006";"CALLE CTRA. DE JAEN, 79";"L-D: 06:00-23:00";38.988111;"ALBACETE";-1.883694;"I";"Albacete";NA;NA;NA;NA;NA;1.379;NA;1.449;NA;1.499;NA;NA;1.619;NA;"ALBACETE";"dm";"REPSOL";"P";0;0;5222;54;"02";"07";FALSE
"02006";"PG CAMPOLLANO-P. 2-CT, S.N.";"L-V: 06:00-22:00; S: 07:30-15:30; D: 09:00-15:00";39.012583;"ALBACETE";-1.874972;"D";"Albacete";NA;NA;NA;NA;NA;1.409;NA;1.479;NA;1.509;NA;NA;1.629;NA;"ALBACETE";"OM";"REPSOL";"P";0;0;5191;54;"02";"07";FALSE
"02006";"CR N-301, 244";"L-D: 24H";39.027778;"ALBACETE";-1.892972;"I";"Albacete";NA;NA;NA;NA;NA;1.409;NA;1.459;NA;1.509;NA;NA;1.619;NA;"ALBACETE";"OM";"REPSOL";"P";0;0;5208;54;"02";"07";FALSE
"02006";"CARRETERA N-322 KM. 359";"L-V: 07:00-21:00; S-D: 09:00-14:00";39.033139;"ALBACETE";-1.845083;"D";"Albacete";NA;NA;NA;NA;NA;1.399;NA;1.449;NA;1.489;NA;NA;1.619;NA;"ALBACETE";"OM";"REPSOL";"P";0;0;5289;54;"02";"07";FALSE
"02006";"CARRETERA NACIONAL 322 PTO KM 347 KM. 347";"L-S: 07:00-22:00";38.965639;"ALBACETE";-1.9355;"D";"Albacete";NA;NA;NA;NA;NA;1.319;NA;NA;NA;NA;NA;NA;NA;NA;"ALBACETE";"dm";"P347";"P";0;0;14377;54;"02";"07";TRUE
"02006";"AVENIDA 1º DE MAYO, S/N";"L-D: 07:00-23:00";38.985194;"ALBACETE";-1.866806;"N";"Albacete";NA;NA;NA;NA;NA;1.319;NA;NA;NA;1.439;NA;NA;NA;NA;"ALBACETE";"dm";"PETROCAMP";"P";0;0;5318;54;"02";"07";TRUE
"02006";"AVDA. DE ESPAÑA (PRÓX. A C/ SAN JUAN), S/N";"L-D: 07:00-23:00";38.982167;"ALBACETE";-1.853306;"N";"Albacete";NA;NA;NA;NA;NA;1.309;NA;NA;NA;1.439;NA;NA;NA;NA;"ALBACETE";"dm";"INPEALSA";"P";0;0;4416;54;"02";"07";TRUE
"02099";"CARRETERA NACIONAL 301 KM. 256";"L-V: 06:00-22:00; S: 06:00-14:00; D: 09:00-21:00";38.929389;"ALBACETE";-1.831639;"D";"Albacete";NA;NA;NA;NA;NA;1.299;NA;NA;NA;1.439;NA;NA;NA;NA;"ALBACETE";"dm";"INPEALSA";"P";0;0;5129;54;"02";"07";TRUE
"02004";"CARRETERA N-322 KM. 349";"L-D: 24H";38.970167;"ALBACETE";-1.919778;"D";"Albacete";NA;NA;NA;NA;NA;1.425;NA;1.495;NA;1.529;NA;NA;1.589;NA;"ALBACETE";"dm";"CEPSA";"P";0;0;11048;54;"02";"07";FALSE
"02328";"AVENIDA PRINCIPE, 2";"L-D: 08:00-16:00";38.900944;"SANTA ANA";-1.994028;"D";"Albacete";NA;NA;NA;NA;NA;1.379;0.981;1.429;NA;1.489;NA;NA;1.599;NA;"ALBACETE";"OM";"REPSOL";"P";0;0;5272;54;"02";"07";FALSE
"02140";"CM. 3203 km 14,1";"L-S: 07:00-21:30; D: 09:00-14:00";38.867556;"SALOBRAL (EL)";-1.9205;"D";"Albacete";NA;NA;NA;NA;NA;1.33;0.82;1.36;NA;1.455;NA;NA;NA;NA;"ALBACETE";"dm";"LOZANO";"P";0;0;4394;54;"02";"07";TRUE
"02099";"CTRA.AGUASNUEVAS KM 0,25";"L-D: 24H";38.870278;"SALOBRAL (EL)";-1.922722;"D";"Albacete";NA;NA;NA;NA;NA;NA;0.785;NA;NA;NA;NA;NA;NA;NA;"ALBACETE";"dm";"CORYMAR";"R";0;0;8915;54;"02";"07";TRUE
"02007";"AVENIDA PRIMERA, S/N";"L-D: 24H";39.022139;"ALBACETE";-1.882056;"D";"Albacete";NA;NA;NA;NA;NA;1.249;NA;NA;NA;1.389;NA;NA;NA;NA;"ALBACETE";"dm";"GMOIL";"P";0;0;13369;54;"02";"07";TRUE
"02007";"AVENIDA 0, 48";"L-V: 07:00-14:00; S-D: 09:00-14:00";39.021778;"ALBACETE";-1.886278;"D";"Albacete";NA;NA;NA;NA;NA;1.309;NA;NA;NA;1.449;NA;NA;1.549;NA;"ALBACETE";"dm";"ABOIL";"P";0;0;4413;54;"02";"07";TRUE
"02007";"CALLE C/ AUTOVIA C/V AVD. SEXTA, S/N";"L-D: 24H";39.029583;"ALBACETE";-1.888083;"D";"Albacete";NA;NA;1.099;1.045;NA;NA;NA;NA;NA;NA;NA;NA;NA;NA;"ALBACETE";"dm";"NATURGY ES  GNV ALBACETE";"P";0;0;14612;54;"02";"07";TRUE
"02007";"AVENIDA POLIGONO CAMPOLLANO AVENIDA 0, 67";"L-D: 24H";39.021583;"ALBACETE";-1.886556;"N";"Albacete";NA;NA;NA;NA;NA;1.309;NA;NA;NA;1.449;NA;NA;NA;NA;"ALBACETE";"dm";"VALERO 24H";"P";0;0;13930;54;"02";"07";TRUE
"02007";"POLIGONO AVDA. 3ª, ESQUINA C/AUTOVIA, 69";"L-D: 24H";39.018;"ALBACETE";-1.874333;"D";"Albacete";NA;NA;NA;NA;NA;1.319;NA;1.399;NA;1.439;NA;NA;1.559;NA;"ALBACETE";"dm";"ENERCOM CARBURANTES";"P";0;0;12801;54;"02";"07";TRUE
"02007";"CARRETERA C-M 332 KM. 2,6";"L-D: 06:00-23:30";38.998111;"ALBACETE";-1.831611;"D";"Albacete";NA;NA;NA;NA;NA;1.379;0.939;1.469;NA;1.499;NA;NA;1.629;NA;"ALBACETE";"dm";"INLOCOR S.L. \"CEPSA\"";"P";0;0;4790;54;"02";"07";TRUE
"02007";"SECTOR PARCELA T-3 LOCAL52, 14";"L-S: 06:00-23:00; D: 08:00-23:00";39.009639;"ALBACETE";-1.878111;"N";"Albacete";NA;NA;NA;NA;NA;1.289;NA;1.319;NA;1.418;NA;NA;1.492;NA;"ALBACETE";"dm";"ALCAMPO";"P";0;0;9601;54;"02";"07";TRUE
"02007";"AVENIDA PRIMERA, 94";"L-V: 06:00-22:00; S: 06:00-14:00";39.016361;"ALBACETE";-1.893944;"N";"Albacete";NA;NA;NA;NA;NA;1.299;NA;1.349;NA;1.429;NA;NA;NA;NA;"ALBACETE";"dm";"INPEALSA";"P";0;0;4417;54;"02";"07";TRUE
"02007";"MADRID-CARTAGENA km 248,5";"L-D: 06:00-22:00";38.971722;"ALBACETE";-1.845278;"D";"Albacete";NA;NA;NA;NA;NA;1.419;NA;1.489;NA;1.519;1.559;NA;1.639;NA;"ALBACETE";"OM";"REPSOL. LOS ANGELES DE LA MANCHA, S.L.";"P";0;0;9546;54;"02";"07";TRUE
"02007";"MADRID-CARTAGENA km 248,5";"L-V: 06:00-22:00";38.971778;"ALBACETE";-1.845306;"I";"Albacete";NA;NA;NA;NA;NA;1.419;NA;1.489;NA;1.519;1.559;NA;1.639;NA;"ALBACETE";"OM";"LOS ANGELES DE LA MANCHA";"P";0;0;11297;54;"02";"07";TRUE
"02007";"AUTOVIA A-31 KM. 69";"L-D: 06:00-22:00";39.031528;"ALBACETE";-1.891361;"I";"Albacete";NA;NA;NA;NA;0.819;1.419;NA;1.489;NA;1.499;NA;NA;1.619;NA;"ALBACETE";"OM";"REPSOL";"P";0;0;11087;54;"02";"07";FALSE
"02007";"POLIGONO CAMPOLLANO C/.F, 13";"L-D: 24H";39.012472;"ALBACETE";-1.889417;"D";"Albacete";NA;NA;NA;NA;NA;1.269;NA;NA;NA;NA;NA;NA;NA;NA;"ALBACETE";"dm";"AVANZA OIL";"P";0;0;10129;54;"02";"07";TRUE
"02007";"AVENIDA 3ª ESQUINA C/ F Nº3, 3";"L-D: 24H";39.009417;"ALBACETE";-1.885694;"N";"Albacete";NA;NA;NA;NA;NA;1.289;NA;NA;NA;1.419;NA;NA;NA;NA;"ALBACETE";"dm";"FAST & GAS";"P";0;0;12763;54;"02";"07";TRUE
"02080";"CARRETERA DE LAS PEÑAS KM 0+238 KM. 0,238";"L-D: 07:00-22:00";38.970778;"ALBACETE";-1.873194;"I";"Albacete";NA;NA;NA;NA;NA;1.339;NA;NA;NA;1.449;NA;NA;NA;NA;"ALBACETE";"dm";"AREA LOS LLANOS";"P";0;0;14465;54;"02";"07";TRUE
"02080";"AUTOVIA A-30 KM. 239,4";"L-D: 07:00-23:00";39.059806;"ALBACETE";-1.93325;"D";"Albacete";NA;NA;NA;NA;NA;1.395;NA;1.461;NA;1.498;NA;NA;1.63;NA;"ALBACETE";"OM";"CEPSA";"P";0;0;5173;54;"02";"07";FALSE
"02080";"AUTOVIA A-30 KM. 239,4";"L-D: 24H";39.060528;"ALBACETE";-1.933056;"I";"Albacete";NA;NA;NA;NA;NA;1.395;NA;1.461;NA;1.504;NA;NA;NA;NA;"ALBACETE";"OM";"CEPSA";"P";0;0;5174;54;"02";"07";FALSE
"02080";"POLIGONO Nº 71, PARCELA 678, PARAJE HONDO DE LA MORENA S/N, S/N";"L-D: 06:30-22:30";38.969361;"ALBACETE";-1.823639;"D";"Albacete";NA;NA;NA;NA;NA;1.379;NA;1.459;NA;1.499;NA;NA;1.629;NA;"ALBACETE";"dm";"CEPSA";"P";0;0;14287;54;"02";"07";FALSE
"02124";"CM-3203 km 41,9";"L-D: 07:00-21:30";38.646833;"ALCADOZO";-1.978917;"I";"Alcadozo";NA;NA;NA;NA;NA;1.439;1.059;1.509;NA;1.559;NA;NA;NA;NA;"ALBACETE";"dm";"CEPSA";"P";0;0;4794;57;"02";"07";FALSE
"02210";"CARRETERA CM-3201 47,1 KM. 47,1";"L: 08:00-20:00";39.203167;"ALCALA DEL JUCAR";-1.433222;"D";"Alcalá del Júcar";NA;NA;NA;NA;NA;1.359;NA;NA;NA;1.459;NA;NA;NA;NA;"ALBACETE";"dm";"EL JUCAR";"P";0;0;8097;58;"02";"07";TRUE
"02300";"CR N-322 276,5";"L-D: 07:00-22:00";38.673111;"ALCARAZ";-2.492222;"D";"Alcaraz";NA;NA;NA;NA;NA;1.389;NA;1.469;NA;1.519;NA;NA;1.609;NA;"ALBACETE";"dm";"CAMPSA";"P";0;0;5241;59;"02";"07";FALSE
"02330";"CARRETERA 322 KM. 302";"L-V: 07:00-17:00";38.808528;"JARDIN (EL)";-2.327639;"I";"Alcaraz";NA;NA;NA;NA;NA;1.379;NA;1.429;NA;1.469;1.519;NA;NA;NA;"ALBACETE";"OM";"REPSOL";"P";0;0;5134;59;"02";"07";FALSE
"02640";"CL AVDA. DE AYORA, S.N. A";"L-D: 06:00-22:00";38.874583;"ALMANSA";-1.100528;"D";"Almansa";NA;NA;NA;NA;0.829;1.419;NA;1.509;NA;1.519;NA;NA;1.629;NA;"ALBACETE";"OM";"REPSOL";"P";0;0;4877;60;"02";"07";FALSE
"02640";"AVENIDA MADRID, 11";"L-V: 07:00-19:00";38.871556;"ALMANSA";-1.108;"N";"Almansa";NA;NA;NA;NA;NA;1.395;NA;1.461;NA;1.503;1.563;NA;NA;NA;"ALBACETE";"OM";"CEPSA";"P";0;0;4798;60;"02";"07";FALSE
"02640";"AUTOVIA A-31 KM. 143,350";"L-D: 06:00-22:00";38.878278;"ALMANSA";-1.143722;"I";"Almansa";NA;NA;NA;NA;NA;1.395;NA;1.461;NA;1.498;1.558;NA;NA;NA;"ALBACETE";"OM";"CEPSA";"P";0;0;4799;60;"02";"07";FALSE
"02640";"AVENIDA CIRCUNVALACION, 9";"L-D: 06:00-22:00";38.879167;"ALMANSA";-1.098889;"N";"Almansa";NA;NA;NA;NA;NA;1.395;NA;1.461;NA;1.503;NA;NA;1.635;NA;"ALBACETE";"OM";"CEPSA";"P";0;0;4872;60;"02";"07";FALSE
"02640";"AVENIDA CIRCUNVALACION, 17";"L-D: 24H";38.874083;"ALMANSA";-1.089278;"N";"Almansa";NA;NA;NA;NA;NA;1.309;NA;NA;NA;NA;NA;NA;NA;NA;"ALBACETE";"dm";"GASÓLEOS S. ALMANSA";"P";0;0;11931;60;"02";"07";TRUE
"02640";"CALLE INFANTE DON JUAN MANUEL, 4";"L-D: 24H";38.874583;"ALMANSA";-1.10125;"D";"Almansa";NA;NA;NA;NA;NA;1.319;NA;NA;NA;1.439;NA;NA;NA;NA;"ALBACETE";"dm";"QUALITY ALMANSA";"P";0;0;14256;60;"02";"07";TRUE
"02640";"CARRETERA N-430 BADAJOZ A VALENCIA KM. 594";"L-D: 24H";38.850278;"ALMANSA";-1.027694;"D";"Almansa";NA;NA;NA;NA;NA;1.309;0.929;NA;NA;1.429;NA;NA;NA;NA;"ALBACETE";"dm";"GASOLINERA LOW COST PENADES";"P";0;0;14129;60;"02";"07";TRUE
"02640";"AVENIDA CIRCUNVALACION, 26";"L-D: 06:00-22:00";38.859944;"ALMANSA";-1.08475;"N";"Almansa";NA;NA;NA;NA;NA;1.389;NA;1.455;NA;1.499;NA;NA;NA;NA;"ALBACETE";"dm";"CEPSA";"P";0;0;4788;60;"02";"07";FALSE
"02640";"AUTOVIA A-31 KM. 140";"L-D: 07:00-23:00";38.875028;"ALMANSA";-1.17575;"D";"Almansa";NA;NA;NA;NA;NA;1.369;NA;1.449;NA;1.484;NA;NA;1.624;NA;"ALBACETE";"OM";"SHELL";"P";0;0;4383;60;"02";"07";FALSE
"02690";"BONETE, S/Nº";"L-D: 24H";38.958875;"ALPERA";-1.236552;"N";"Alpera";NA;NA;NA;NA;NA;1.258;0.828;NA;NA;1.378;NA;NA;NA;NA;"ALBACETE";"dm";"COOPERATIVA SANTA CRUZ DE ALPERA";"P";0;0;9035;61;"02";"07";TRUE
"02320";"N-322 km 326,2";"L-D: 07:00-23:00";38.878028;"BALAZOTE";-2.150639;"D";"Balazote";NA;NA;NA;NA;NA;1.366;0.92;NA;NA;1.486;NA;NA;NA;NA;"ALBACETE";"dm";"E.S. BALAZOTE S.L.";"P";0;0;4396;63;"02";"07";TRUE
"02639";"CALLE ALBACETE, 57";"L-D: 06:00-23:00";39.043139;"BARRAX";-2.195139;"I";"Barrax";NA;NA;NA;NA;NA;1.366;0.92;NA;NA;1.486;NA;NA;NA;NA;"ALBACETE";"dm";"E.S. BARRAX S.L.";"P";0;0;4399;66;"02";"07";TRUE
"02639";"CAMINO DE LOS GONZALOS SN";"L-D: 24H";39.051236;"BARRAX";-2.192996;"D";"Barrax";NA;NA;NA;NA;NA;1.297;0.825;NA;NA;NA;NA;NA;NA;NA;"ALBACETE";"dm";"COABA";"R";0;0;9254;66;"02";"07";TRUE
"02691";"AUTOVIA A-31 KM. 126";"L-D: 06:00-22:00";38.875861;"BONETE";-1.3315;"D";"Bonete";NA;NA;NA;NA;NA;1.409;NA;1.459;NA;1.509;NA;NA;1.619;NA;"ALBACETE";"OM";"REPSOL";"P";0;0;5268;69;"02";"07";FALSE
"02691";"CR N-430, 566,3";"L-D: 06:00-22:00";38.876111;"BONETE";-1.331611;"I";"Bonete";NA;NA;NA;NA;NA;1.409;NA;1.459;NA;1.509;NA;NA;1.619;NA;"ALBACETE";"OM";"REPSOL";"P";0;0;5269;69;"02";"07";FALSE
"02610";"CALLE CARRETERA MUNERA, 2";"S-D: 07:00-15:00";38.953361;"BONILLO (EL)";-2.535056;"D";"Bonillo (El)";NA;NA;NA;NA;NA;1.409;1.008;1.469;NA;1.469;NA;NA;1.579;NA;"ALBACETE";"OM";"REPSOL";"P";0;0;5282;70;"02";"07";FALSE
"02151";"AVDA. ALBACETE, 33";"L-D: 07:00-23:00";39.100792;"CASAS DE JUAN NUÑEZ";-1.560857;"D";"Casas de Juan Núñez";NA;NA;NA;NA;NA;1.369;0.83;NA;NA;1.489;NA;NA;NA;NA;"ALBACETE";"dm";"GASOLINERAS DEL REY";"P";0;0;4390;72;"02";"07";TRUE
"02200";"AVDA. DEL VINO, 10";"L-D: 24H";39.291375;"CASAS-IBAÑEZ";-1.474107;"D";"Casas-Ibáñez";NA;NA;NA;NA;NA;NA;0.9;NA;NA;NA;NA;NA;NA;NA;"ALBACETE";"dm";"CEPSA";"R";0;0;10953;75;"02";"07";FALSE
"02200";"CARRETERA ALBACETE KM. 94";"L-D: 07:00-21:00";39.283944;"CASAS-IBAÑEZ";-1.477806;"I";"Casas-Ibáñez";NA;NA;NA;NA;NA;1.389;0.939;1.449;NA;1.519;NA;NA;1.659;NA;"ALBACETE";"dm";"CEPSA";"P";0;0;5204;75;"02";"07";FALSE
"02660";"CR N-344 DIRC.VALENCIA, KM.  118.3";"L-D: 06:00-22:00";38.727472;"CAUDETE";-0.943;"N";"Caudete";NA;NA;NA;NA;NA;1.398;NA;1.49;NA;1.499;NA;NA;1.641;NA;"ALBACETE";"dm";"BP PARGA I PETROL BAS BEL";"P";0;0;5142;76;"02";"07";TRUE
"02660";"AUTOVIA A-31 KM. 172";"L-V: 07:00-15:00";38.721917;"CAUDETE";-0.933861;"D";"Caudete";NA;NA;NA;NA;NA;1.398;NA;1.489;NA;1.489;NA;NA;1.631;NA;"ALBACETE";"dm";"BP OIL";"P";0;0;9293;76;"02";"07";TRUE
"02660";"AVENIDA VALENCIA DE, 16";"L-D: 06:00-22:00";38.708944;"CAUDETE";-0.982111;"N";"Caudete";NA;NA;NA;NA;NA;1.379;NA;1.449;NA;1.489;NA;NA;1.631;NA;"ALBACETE";"dm";"GALP";"P";0;0;5323;76;"02";"07";FALSE
"02660";"CR N-330, 71,4";"L-D: 06:00-23:00";38.756417;"CAUDETE";-0.955833;"I";"Caudete";NA;NA;NA;NA;NA;1.409;0.944;1.459;NA;1.509;NA;NA;1.619;NA;"ALBACETE";"OM";"REPSOL";"P";0;0;4820;76;"02";"07";FALSE
"02660";"CARRETERA D-12 ESTACION KM. 32";"L-D: 24H";38.711694;"CAUDETE";-0.971639;"D";"Caudete";NA;NA;NA;NA;NA;1.329;0.919;NA;NA;1.419;NA;NA;NA;NA;"ALBACETE";"dm";"VILA Y FAYOS";"P";0;0;14203;76;"02";"07";TRUE
"02660";"CARRETERA D12 ESTACION KM. 1";"L-D: 24H";38.71075;"CAUDETE";-0.973861;"D";"Caudete";NA;NA;NA;2.2;NA;NA;NA;NA;NA;NA;NA;NA;NA;NA;"ALBACETE";"dm";"HAM";"P";0;0;15047;76;"02";"07";TRUE
"02660";"CARRETERA N-344 KM. 114,500";"L-D: 24H";38.710861;"CAUDETE";-0.974778;"I";"Caudete";NA;NA;NA;NA;NA;1.324;0.914;NA;NA;NA;NA;NA;NA;NA;"ALBACETE";"dm";"TRANSPORTES CAUDETE";"P";0;0;12471;76;"02";"07";TRUE
"02247";"CALLE VIRGEN DE LAS NIEVES, 17";"L-D: 24H";39.301;"CENIZATE";-1.664167;"D";"Cenizate";NA;NA;NA;NA;NA;1.243;0.799;NA;NA;1.378;NA;NA;NA;NA;"ALBACETE";"dm";"VIRGEN DE LAS NIEVES";"R";0;0;12074;77;"02";"07";TRUE
"02520";"Ctra. AB-430 KM 530,3";"L: 06:00-22:00";38.915972;"CHINCHILLA DE MONTE-ARAGO";-1.726278;"I";"Chinchilla de Monte-Aragón";NA;NA;NA;NA;NA;1.419;NA;1.469;NA;1.519;NA;NA;1.629;NA;"ALBACETE";"OM";"REPSOL";"P";0;0;5230;78;"02";"07";FALSE
"02695";"AUTOVIA A31 KM. 111";"L-V: 06:00-22:00; S-D: 07:00-22:00";38.898306;"VILLAR DE CHINCHILLA";-1.502806;"N";"Chinchilla de Monte-Aragón";NA;NA;NA;NA;NA;1.399;NA;1.469;NA;1.509;NA;NA;1.659;NA;"ALBACETE";"dm";"CEPSA";"P";0;0;4800;78;"02";"07";FALSE
"02430";"CL BOLEA, 36 (CM-412 km 235,65)";"L: 06:00-22:00";38.451306;"ELCHE DE LA SIERRA";-2.044778;"D";"Elche de la Sierra";NA;NA;NA;NA;NA;1.419;0.999;1.469;NA;1.519;NA;NA;1.629;NA;"ALBACETE";"OM";"CAMPSA";"P";0;0;5255;81;"02";"07";FALSE
"02651";"AVDA. DOCTOR PEREZ GIL, 25";"L-D: 07:00-21:00";38.689833;"FUENTE-ALAMO";-1.433306;"N";"Fuente-Álamo";NA;NA;NA;NA;NA;1.339;0.869;NA;NA;1.469;NA;NA;1.599;NA;"ALBACETE";"dm";"Nº 7374";"P";0;0;4422;84;"02";"07";TRUE
"02651";"LA HIGUERA, 000";"L-D: 24H";38.695348;"FUENTE-ALAMO";-1.431579;"D";"Fuente-Álamo";NA;NA;NA;NA;NA;1.26;0.79;NA;NA;NA;NA;NA;NA;NA;"ALBACETE";"dm";"SAN DIONISIO";"R";0;0;10621;84;"02";"07";TRUE
"02260";"N-322 (CORDOBA-VALENCIA) km 399";"L-D: 07:00-20:00";39.269972;"FUENTEALBILLA";-1.548639;"I";"Fuentealbilla";NA;NA;NA;NA;NA;1.349;0.879;NA;NA;1.479;NA;NA;NA;NA;"ALBACETE";"dm";"ES SAN ANTONIOABAD. FUENTEALBILLA";"P";0;0;4403;85;"02";"07";TRUE
"02110";"CR N-301, 231,8";"L-D: 07:00-21:00";39.107667;"GINETA (LA)";-1.990194;"D";"Gineta (La)";NA;NA;NA;NA;NA;1.419;NA;1.509;NA;1.489;NA;NA;1.619;NA;"ALBACETE";"OM";"REPSOL";"P";0;0;5237;86;"02";"07";FALSE
"02110";"CR A-31, 235";"L-D: 06:00-22:00";39.086278;"GINETA (LA)";-1.963944;"I";"Gineta (La)";NA;NA;NA;NA;NA;1.419;NA;1.489;NA;1.499;1.539;NA;1.619;NA;"ALBACETE";"OM";"REPSOL";"P";0;0;4841;86;"02";"07";FALSE
"02253";"CARRETERA NACIONAL 322 KM. 390";"L: 06:00-22:00";39.238111;"GOLOSALVO";-1.635111;"D";"Golosalvo";NA;NA;NA;NA;NA;1.379;NA;1.469;NA;1.499;NA;NA;1.629;NA;"ALBACETE";"dm";"CEPSA";"P";0;0;4789;87;"02";"07";FALSE
"02400";"AUTOVIA A-30 KM. 322,5";"L-D: 06:00-22:00";38.46425;"HELLIN";-1.596722;"D";"Hellín";NA;NA;NA;NA;NA;1.399;NA;1.469;NA;1.509;NA;NA;1.629;NA;"ALBACETE";"dm";"GALP";"P";0;0;10575;88;"02";"07";FALSE
"02400";"CARRETERA TORREUCHEA KM. 1";"L-D: 24H";38.495972;"HELLIN";-1.636389;"D";"Hellín";NA;NA;NA;NA;0.929;1.398;0.969;1.498;NA;1.498;NA;NA;1.598;NA;"ALBACETE";"dm";"HELLIN GAS S.L.";"P";0;0;11181;88;"02";"07";TRUE
"02400";"MELCHOR  DE MACANAZ, 66";"L: 06:00-23:00";38.511222;"HELLIN";-1.696972;"N";"Hellín";NA;NA;NA;NA;NA;1.409;NA;1.459;NA;1.489;NA;NA;1.599;NA;"ALBACETE";"dm";"BP";"P";0;0;4423;88;"02";"07";FALSE
"02400";"CARRETERA JAEN KM. 47";"L-D: 08:00-21:00";38.502889;"HELLIN";-1.714556;"D";"Hellín";NA;NA;NA;NA;NA;1.419;NA;1.469;NA;1.499;NA;NA;1.609;NA;"ALBACETE";"OM";"REPSOL";"P";0;0;4806;88;"02";"07";FALSE
"02400";"CARRETERA MURCIA KM. 33";"L-D: 06:00-23:00";38.506806;"HELLIN";-1.687833;"I";"Hellín";NA;NA;NA;NA;NA;1.419;NA;1.469;NA;1.509;NA;NA;1.619;NA;"ALBACETE";"OM";"PETRONOR";"P";0;0;4831;88;"02";"07";TRUE
"02400";"CARRETERA N-301 KM. 316";"L-D: 06:00-23:00";38.524444;"HELLIN";-1.703056;"I";"Hellín";NA;NA;NA;NA;NA;1.419;NA;1.469;NA;1.509;NA;NA;1.619;NA;"ALBACETE";"OM";"REPSOL";"P";0;0;5135;88;"02";"07";FALSE
"02400";"CARRETERA A-30 KM. 328,2";"L-D: 06:00-22:00";38.417306;"HELLIN";-1.571667;"I";"Hellín";NA;NA;NA;NA;NA;1.395;NA;1.495;NA;1.498;1.558;NA;NA;NA;"ALBACETE";"OM";"CEPSA";"P";0;0;5312;88;"02";"07";FALSE
"02400";"CARRETERA N 301-A KM. S/N";"L-D: 24H";38.502528;"HELLIN";-1.677694;"D";"Hellín";NA;NA;NA;NA;NA;1.299;NA;NA;NA;1.429;NA;NA;NA;NA;"ALBACETE";"dm";"MULTSER-OIL";"P";0;0;14148;88;"02";"07";TRUE
"02400";"AVENIDA LIBERTAD, 111";"L-D: 24H";38.517306;"HELLIN";-1.700417;"D";"Hellín";NA;NA;NA;NA;NA;1.287;NA;NA;NA;1.407;NA;NA;NA;NA;"ALBACETE";"dm";"PLENOIL";"P";0;0;14611;88;"02";"07";TRUE
"02400";"CARRETERA CM 412 KM. 273";"L-D: 06:30-22:00";38.532389;"HELLIN";-1.694889;"D";"Hellín";NA;NA;NA;NA;NA;1.298;NA;NA;NA;1.428;NA;NA;NA;NA;"ALBACETE";"dm";"PETROGAS";"P";0;0;13229;88;"02";"07";TRUE
"02400";"POLIGONO SAN RAFAEL 3ª FASE, SN";"L-D: 24H";38.545111;"HELLIN";-1.705389;"N";"Hellín";NA;NA;NA;NA;NA;1.444;NA;NA;NA;NA;NA;NA;NA;NA;"ALBACETE";"OM";"IDS";"P";0;0;11142;88;"02";"07";TRUE
"02420";"CARRETERA DE HELLIN KM. 104";"L-D: 06:00-23:00";38.491861;"ISSO";-1.741111;"D";"Hellín";NA;NA;NA;NA;NA;1.409;1.011;1.459;NA;1.499;NA;NA;1.609;NA;"ALBACETE";"OM";"REPSOL";"P";0;0;5163;88;"02";"07";FALSE
"02694";"BALTASAR GONZALEZ SAEZ, 34 - 36";"L-D: 24H";38.960944;"HIGUERUELA";-1.444083;"D";"Higueruela";NA;NA;NA;NA;NA;1.379;0.789;NA;NA;1.499;NA;NA;NA;NA;"ALBACETE";"dm";"NO";"R";0;0;8895;90;"02";"07";TRUE
"02696";"AUTOVIA A-31 KM. 103,150";"L-D: 07:00-23:00";38.921833;"HOYA-GONZALO";-1.583389;"D";"Hoya-Gonzalo";NA;NA;NA;NA;NA;1.419;NA;1.479;NA;1.519;NA;NA;1.619;NA;"ALBACETE";"dm";"REPSOL";"P";0;0;4852;91;"02";"07";FALSE
"02434";"CARRETERA A 45 KM. 39,8";"L-D: 07:30-21:00";38.356556;"LETUR";-2.111056;"D";"Letur";NA;NA;NA;NA;NA;1.367;0.937;NA;NA;1.455;NA;NA;1.587;NA;"ALBACETE";"dm";"E.S. SIERRA DEL SEGURA";"P";0;0;4393;93;"02";"07";TRUE
"02160";"PASEO LIBERTAD, 62";"L-D: 7:00-20:30";38.948472;"LEZUZA";-2.354861;"D";"Lezuza";NA;NA;NA;NA;NA;1.389;NA;NA;NA;1.479;NA;NA;NA;NA;"ALBACETE";"dm";"E.S. VIRGEN DE LA CRUZ";"P";0;0;4371;94;"02";"07";TRUE
"02230";"AVENIDA DE LEVANTE 27";"L-D: 24H";39.232528;"MADRIGUERAS";-1.794139;"D";"Madrigueras";NA;NA;NA;NA;NA;1.3;0.826;NA;NA;NA;NA;NA;NA;NA;"ALBACETE";"dm";"SAT VIDEMA";"R";0;0;9252;96;"02";"07";TRUE
"02230";"AVENIDA LEVANTE, 15";"L-D: 06:00-22:00";39.233056;"MADRIGUERAS";-1.799472;"I";"Madrigueras";NA;NA;NA;NA;NA;1.419;0.944;1.509;NA;1.479;NA;NA;1.589;NA;"ALBACETE";"OM";"REPSOL";"P";0;0;5232;96;"02";"07";FALSE
"02230";"CARRETERA C-3222 KM. 9";"L-S: 07:00-15:00";39.226611;"MADRIGUERAS";-1.800611;"D";"Madrigueras";NA;NA;NA;NA;NA;1.339;NA;NA;NA;1.449;NA;NA;NA;NA;"ALBACETE";"dm";"E.S. MADRIGUERAS";"P";0;0;10983;96;"02";"07";TRUE
"02240";"CAMINO HORTIGOSA, S/N";"L-D: 24H";39.209972;"MAHORA";-1.729333;"N";"Mahora";NA;NA;NA;NA;NA;1.27;0.82;NA;NA;NA;NA;NA;NA;NA;"ALBACETE";"dm";"SECADEMA";"R";0;0;9250;97;"02";"07";TRUE
"02620";"CARRETERA MADRID-CARTAGENA KM. S/N";"L-D: 24H";39.273583;"MINAYA";-2.325056;"D";"Minaya";NA;NA;NA;NA;NA;1.26;0.83;NA;NA;NA;NA;NA;NA;NA;"ALBACETE";"dm";"COOPERATIVA VITIVINICOLA SANTIAGO EL MAYOR";"R";0;0;9219;99;"02";"07";TRUE
"02620";"CARRERA N-301, 195,2";"L-D: 06:00-23:00";39.276056;"MINAYA";-2.330333;"D";"Minaya";NA;NA;NA;NA;NA;1.379;0.949;1.449;NA;1.499;NA;NA;1.619;NA;"ALBACETE";"dm";"REPSOL";"P";0;0;5277;99;"02";"07";FALSE
"02650";"CALLE CAPATAZ SANTIAGO, 91";"L-D: 06:30-23:00";38.789694;"MONTEALEGRE DEL CASTILLO";-1.32875;"D";"Montealegre del Castillo";NA;NA;NA;NA;NA;1.2;0.77;NA;NA;NA;NA;NA;NA;NA;"ALBACETE";"dm";"BODEGAS SANTIAGO APOSTOL";"R";0;0;10526;102;"02";"07";TRUE
"02650";"CALLE CAPATAZ SANTIAGO, 23";"L-D: 07:00-21:00";38.785917;"MONTEALEGRE DEL CASTILLO";-1.33025;"I";"Montealegre del Castillo";NA;NA;NA;NA;NA;1.399;NA;NA;NA;1.499;NA;NA;NA;NA;"ALBACETE";"dm";"LOS CORRALES";"P";0;0;5202;102;"02";"07";TRUE
"02612";"CALLE COOPERATIVAS, 4";"L-D: 24H";39.046139;"MUNERA";-2.480694;"N";"Munera";NA;NA;NA;NA;NA;1.259;0.81;NA;NA;1.359;NA;NA;NA;NA;"ALBACETE";"dm";"OLEOVINICOLA CAMPOS DE MUNERA S. COOP. DE C-LM";"R";0;0;12231;104;"02";"07";TRUE
"02612";"CALLE POZO (EL), 106";"L-D: 06:30-22:30";39.043806;"MUNERA";-2.485028;"D";"Munera";NA;NA;NA;NA;NA;1.309;NA;1.359;NA;1.439;NA;NA;NA;NA;"ALBACETE";"dm";"INPEALSA";"P";0;0;5213;104;"02";"07";TRUE
"02530";"CR AB-702, 45,6";"L-D: 07:00-21:00";38.151167;"NERPIO";-2.293444;"D";"Nerpio";NA;NA;NA;NA;NA;1.389;1.035;NA;NA;1.469;NA;NA;1.579;NA;"ALBACETE";"OM";"CAMPSA";"P";0;0;5265;106;"02";"07";FALSE
"02652";"CRTA.CM km KM297,5";"L-D: 07:00-21:00";38.622944;"ONTUR";-1.497667;"I";"Ontur";NA;NA;NA;NA;NA;1.369;1.001;1.419;NA;1.469;1.509;NA;NA;NA;"ALBACETE";"dm";"REPSOL";"P";0;0;10619;107;"02";"07";FALSE
"02652";"CAMINO DE HELLIN S/N";"L-D: 24H";38.609556;"ONTUR";-1.508333;"D";"Ontur";NA;NA;NA;NA;NA;1.24;NA;NA;NA;NA;NA;NA;NA;NA;"ALBACETE";"dm";"ONTALBA S. COOP DE C-LM";"P";0;0;11340;107;"02";"07";TRUE
"02611";"CARRETERA N 430 KM. 429";"L-S: 08:00-20:00; D: 08:00-18:00";38.967167;"OSSA DE MONTIEL";-2.7515;"I";"Ossa de Montiel";NA;NA;NA;NA;NA;1.379;NA;1.429;NA;1.469;1.499;NA;NA;NA;"ALBACETE";"OM";"REPSOL";"P";0;0;5270;108;"02";"07";FALSE
"02120";"AVENIDA GUARDIA CIVIL, S/N";"L-D: 24H";38.724028;"PEÑAS DE SAN PEDRO";-1.990278;"D";"Peñas de San Pedro";NA;NA;NA;NA;NA;1.349;NA;NA;NA;1.479;NA;NA;NA;NA;"ALBACETE";"dm";"VALERO 24H ENERGIA";"P";0;0;14417;110;"02";"07";TRUE
"02692";"CARRETERA FUENTEALAMO KM. 36";"L-D: 24H";38.828806;"PETROLA";-1.553694;"I";"Pétrola";NA;NA;NA;NA;NA;1.349;NA;NA;NA;1.459;NA;NA;NA;NA;"ALBACETE";"dm";"GASOLEOS TURBULA";"P";0;0;4791;112;"02";"07";TRUE
"02099";"CALLE ANTONIO MACHADO, 2";"L-V: 07:00-14:00; S: 09:00-14:00";38.805278;"POZO CAÑADA";-1.736389;"D";"Pozo Cañada";NA;NA;NA;NA;NA;1.379;NA;NA;NA;NA;NA;NA;NA;NA;"ALBACETE";"dm";"E.S. LEDAÑA";"P";0;0;11977;114;"02";"07";TRUE
"02141";"CR CM-313 61,7";"L-D: 07:00-21:00";38.717556;"POZOHONDO";-1.91075;"I";"Pozohondo";NA;NA;NA;NA;NA;1.439;1.039;NA;NA;1.559;NA;NA;NA;NA;"ALBACETE";"dm";"REPSOL";"P";0;0;5238;115;"02";"07";FALSE
"02154";"POLIGONO PARAJE RECIAL, 2";"L-D: 24H";39.081278;"POZO-LORENTE";-1.512611;"I";"Pozo-Lorente";NA;NA;NA;NA;NA;1.279;0.819;NA;NA;NA;NA;NA;NA;NA;"ALBACETE";"dm";"SAT SANTA CRUZ DE POZO LORENTE";"P";0;0;12334;116;"02";"07";TRUE
"02327";"CARRETERA M 313 KM. 50";"L-D: 07:00-22:00";38.804722;"POZUELO";-2.098778;"I";"Pozuelo";NA;NA;NA;NA;NA;1.369;0.959;NA;NA;1.479;NA;NA;1.589;NA;"ALBACETE";"dm";"INLOCOR S.L.";"P";0;0;4410;117;"02";"07";TRUE
"02450";"CARRETERA CM-412 KM. 199,5";"L-D: 08:00-20:00";38.493528;"RIOPAR";-2.411444;"I";"Riópar";NA;NA;NA;NA;NA;1.419;NA;1.489;NA;1.499;1.569;NA;NA;NA;"ALBACETE";"dm";"CEPSA";"P";0;0;4793;119;"02";"07";FALSE
"02340";"CARRETERA NACIONAL 320 KM. 289";"L-V: 07:00-21:00; S: 07:00-14:30; D: 07:00-21:00";38.771194;"ROBLEDO";-2.450028;"D";"Robledo";NA;NA;NA;NA;NA;1.333;NA;NA;NA;1.444;NA;NA;NA;NA;"ALBACETE";"dm";"CANOIL";"P";0;0;4370;120;"02";"07";TRUE
"02630";"CR NACIONAL 301 km 210,300";"L-D: 24H";39.213653;"RODA (LA)";-2.17619;"N";"Roda (La)";NA;NA;NA;NA;NA;1.16;NA;NA;NA;NA;NA;NA;NA;NA;"ALBACETE";"dm";"RODATRANS";"R";0;0;9414;121;"02";"07";TRUE
"02630";"POLIGONO AVENIDA PRIMERA, 17";"L-D: 24H";39.19125;"RODA (LA)";-2.143056;"D";"Roda (La)";NA;NA;2.23;2.2;NA;NA;NA;NA;NA;NA;NA;NA;NA;NA;"ALBACETE";"dm";"HAM";"P";0;0;14811;121;"02";"07";TRUE
"02630";"ALFREDO ATIENZA, 149-151";"L-D: 24H";39.201139;"RODA (LA)";-2.14775;"D";"Roda (La)";NA;NA;NA;NA;NA;1.229;0.805;NA;NA;NA;NA;NA;NA;NA;"ALBACETE";"dm";"LA REMEDIADORA";"R";0;0;8958;121;"02";"07";TRUE
"02630";"CARRETERA AB101 KM. 0,2";"L-D: 24H";39.218389;"RODA (LA)";-2.158028;"N";"Roda (La)";NA;NA;NA;NA;NA;1.279;NA;NA;NA;1.409;NA;NA;NA;NA;"ALBACETE";"dm";"GASPLAY";"P";0;0;13480;121;"02";"07";TRUE
"02630";"CR NACIONAL 301, KM 209,5";"L-D: 06:00-22:00";39.212361;"RODA (LA)";-2.171028;"N";"Roda (La)";NA;NA;NA;NA;NA;1.419;NA;1.509;NA;1.509;NA;NA;NA;NA;"ALBACETE";"dm";"BP CASA JUANITO RESTAURANTE";"P";0;0;4891;121;"02";"07";TRUE
"02630";"AUTOVIA A-31 KM. 34,50";"L-D: 07:00-23:00";39.225;"RODA (LA)";-2.186083;"I";"Roda (La)";NA;NA;NA;NA;NA;1.409;NA;1.499;NA;1.499;NA;NA;1.629;NA;"ALBACETE";"dm";"GALP";"P";0;0;5316;121;"02";"07";FALSE
"02630";"CARRETERA A-31 KM. 50";"L-D: 07:00-23:00";39.143972;"RODA (LA)";-2.05125;"D";"Roda (La)";NA;NA;NA;NA;NA;1.409;NA;1.499;NA;1.499;NA;NA;1.629;NA;"ALBACETE";"dm";"GALP";"P";0;0;5317;121;"02";"07";FALSE
"02630";"AUTOVIA A-31 KM. 40";"L-D: 06:00-22:00";39.200944;"RODA (LA)";-2.144639;"D";"Roda (La)";NA;NA;NA;NA;NA;1.419;NA;1.489;NA;1.499;NA;NA;1.619;NA;"ALBACETE";"OM";"REPSOL";"P";0;0;11427;121;"02";"07";FALSE
"02630";"CARRETERA CM-3114 KM. 0,1";"L-V: 06:00-10:00; S: 06:00-14:00";39.213722;"RODA (LA)";-2.156667;"I";"Roda (La)";NA;NA;NA;NA;NA;1.409;NA;1.459;NA;1.479;NA;NA;1.599;NA;"ALBACETE";"OM";"REPSOL";"P";0;0;5162;121;"02";"07";FALSE
"02630";"CALLE ALFREDO ATIENZA, 156";"L: 06:00-23:00";39.201667;"RODA (LA)";-2.149;"D";"Roda (La)";NA;NA;NA;NA;NA;1.419;NA;1.499;NA;1.489;NA;NA;1.609;NA;"ALBACETE";"OM";"REPSOL";"P";0;0;4894;121;"02";"07";FALSE
"02630";"MARTIRES 209";"L-V: 07:00-20:00; S: 09:00-14:00";39.212861;"RODA (LA)";-2.171778;"D";"Roda (La)";NA;NA;NA;NA;NA;1.309;NA;1.375;NA;1.419;NA;NA;1.551;NA;"ALBACETE";"OM";"CEPSA";"P";0;0;11279;121;"02";"07";FALSE
"02435";"AVENIDA DE LA PAZ, 3";"L-S: 06:00-22:00; D: 06:30-22:00";38.331361;"SOCOVOS";-1.981861;"D";"Socovos";NA;NA;NA;NA;NA;1.399;0.989;NA;NA;1.489;NA;NA;1.599;NA;"ALBACETE";"dm";"NAVARRO Y VALERO, S.L";"P";0;0;4392;124;"02";"07";TRUE
"02100";"CARRETERA VILLAGARCIA KM. 0,1";"L-D: 24H";39.270556;"TARAZONA DE LA MANCHA";-1.908778;"I";"Tarazona de la Mancha";NA;NA;NA;NA;NA;1.22;0.75;NA;NA;1.3;NA;NA;NA;NA;"ALBACETE";"dm";"COOP. LA UNION AB";"R";0;0;11402;125;"02";"07";TRUE
"02100";"AVENIDA ALBACETE, 35";"L-D: 24H";39.256194;"TARAZONA DE LA MANCHA";-1.912194;"D";"Tarazona de la Mancha";NA;NA;NA;NA;NA;1.244;NA;NA;NA;1.372;NA;NA;NA;NA;"ALBACETE";"dm";"LA GAVIOTA GASOLINERAS";"P";0;0;12953;125;"02";"07";TRUE
"02100";"CL AVENIDA DE LA RODA, 1";"L-D: 07:00-23:00";39.25975;"TARAZONA DE LA MANCHA";-1.911389;"I";"Tarazona de la Mancha";NA;NA;NA;NA;NA;1.409;NA;1.479;NA;1.469;1.509;NA;NA;NA;"ALBACETE";"OM";"REPSOL";"P";0;0;5284;125;"02";"07";FALSE
"02500";"AVENIDA GUARDIA CIVIL, 233";"L-D: 24H";38.602278;"TOBARRA";-1.680917;"D";"Tobarra";NA;NA;NA;NA;NA;1.419;1.029;1.479;NA;1.519;NA;NA;1.639;NA;"ALBACETE";"dm";"REPSOL";"P";0;0;5219;126;"02";"07";FALSE
"02500";"CAMINO CAMINO DEL GUIJARRAL, 0";"L-D: 06:00-22:00";38.603306;"TOBARRA";-1.694083;"I";"Tobarra";NA;NA;NA;NA;NA;1.25;0.9;NA;NA;NA;NA;NA;NA;NA;"ALBACETE";"dm";"SAN ROQUE DE TOBARRA S. COOP. DE C-LM";"P";0;0;12786;126;"02";"07";TRUE
"02500";"AVENIDA GUARDIA CIVIL, 114";"L-D: 07:00-22:00";38.594639;"TOBARRA";-1.685417;"D";"Tobarra";NA;NA;NA;NA;NA;1.359;NA;1.409;NA;1.499;1.609;NA;NA;NA;"ALBACETE";"dm";"E.S. TOBARRA";"P";0;0;11399;126;"02";"07";TRUE
"02500";"AVENIDA GUARDIA CIVIL, 162";"L-D: 06:00-23:00";38.601722;"TOBARRA";-1.680833;"D";"Tobarra";NA;NA;NA;NA;NA;1.279;NA;NA;NA;1.399;NA;NA;NA;NA;"ALBACETE";"dm";"NTRA. SRA. DE LA ENCARNACION";"P";0;0;13778;126;"02";"07";TRUE
"02150";"SANTA CRUZ 16";"L-D: 24H";39.137222;"VALDEGANGA";-1.680944;"D";"Valdeganga";NA;NA;NA;NA;NA;1.291;0.816;NA;NA;NA;NA;NA;NA;NA;"ALBACETE";"dm";"NO HAY";"R";0;0;8900;127;"02";"07";TRUE
"02636";"CALLE DEL VINO, 10";"L-D: 24H";39.2935;"VILLALGORDO DEL JUCAR";-2.059556;"N";"Villalgordo del Júcar";NA;NA;NA;NA;NA;NA;0.832;NA;NA;NA;NA;NA;NA;NA;"ALBACETE";"dm";"SAN ISIDRO";"R";0;0;12702;130;"02";"07";TRUE
"02636";"CARRETERA CM-3114 KM. 12,7";"L-S: 08:00-20:00";39.302389;"VILLALGORDO DEL JUCAR";-2.067639;"I";"Villalgordo del Júcar";NA;NA;NA;NA;NA;1.349;NA;NA;NA;1.459;NA;NA;NA;NA;"ALBACETE";"dm";"E.S EL GORRION";"P";0;0;4895;130;"02";"07";TRUE
"02270";"CALLE VALENCIA, 41";"L-D: 24H";39.367333;"VILLAMALEA";-1.59325;"I";"Villamalea";NA;NA;NA;NA;NA;1.23;0.815;NA;NA;NA;NA;NA;NA;NA;"ALBACETE";"dm";"NO TIENE";"R";0;0;10053;131;"02";"07";TRUE
"02270";"CARRETERA CM-3201 KM. 22,70";"L-S: 07:00-21:00; D: 07:00-14:00";39.366861;"VILLAMALEA";-1.592778;"D";"Villamalea";NA;NA;NA;NA;NA;1.419;0.94;1.479;NA;1.499;NA;NA;1.609;NA;"ALBACETE";"OM";"REPSOL";"P";0;0;5258;131;"02";"07";FALSE
"02350";"CR N-322, 258,8";"L-D: 07:00-21:00";38.581722;"VILLAPALACIOS";-2.626222;"D";"Villapalacios";NA;NA;NA;NA;NA;1.379;0.979;1.489;NA;1.539;NA;NA;1.569;NA;"ALBACETE";"dm";"REPSOL";"P";0;0;4893;132;"02";"07";FALSE
"02600";"CALLE DOS DE MAYO, 167";"L-D: 06:00-00:00";39.278222;"VILLARROBLEDO";-2.602028;"I";"Villarrobledo";NA;NA;NA;NA;NA;1.359;0.949;1.459;NA;1.469;1.499;NA;NA;NA;"ALBACETE";"dm";"REPSOL";"P";0;0;5305;133;"02";"07";FALSE
"02600";"CARRETERA DE LAS MESAS KM. 005";"L-V: 06:00-22:00; S-D: 07:00-22:30";39.27225;"VILLARROBLEDO";-2.617083;"N";"Villarrobledo";NA;NA;NA;NA;NA;1.359;0.955;1.449;NA;1.469;NA;NA;1.589;NA;"ALBACETE";"dm";"ESTACIÓN DE SERVICIO LOS VIÑEDOS";"P";0;0;4368;133;"02";"07";TRUE
"02600";"AUTOVIA A-43 KM. 129";"L-D: 24H";39.258778;"VILLARROBLEDO";-2.586778;"D";"Villarrobledo";NA;NA;NA;NA;NA;1.395;NA;1.459;NA;1.489;NA;NA;1.621;NA;"ALBACETE";"dm";"REPSOL";"P";0;0;11797;133;"02";"07";FALSE
"02600";"AVENIDA REYES CATÓLICOS (APARCAMIENTO DEL CARREFOUR), S/N";"L-S: 08:00-22:00";39.285722;"VILLARROBLEDO";-2.579639;"N";"Villarrobledo";NA;NA;NA;NA;NA;1.379;NA;1.409;NA;1.479;NA;NA;1.629;NA;"ALBACETE";"dm";"CARREFOUR";"P";0;0;4442;133;"02";"07";TRUE
"02600";"AVENIDA REYES CATOLICOS, 133";"L-D: 06:00-23:00";39.277056;"VILLARROBLEDO";-2.591722;"D";"Villarrobledo";NA;NA;NA;NA;NA;1.379;NA;1.469;NA;1.479;NA;NA;1.621;NA;"ALBACETE";"dm";"BP VILLARROBLEDO";"P";0;0;11976;133;"02";"07";TRUE
"02600";"CARRETERA NACIONAL 310 KM. 137,7";"L-S: 07:00-22:00";39.293722;"VILLARROBLEDO";-2.567139;"I";"Villarrobledo";NA;NA;NA;NA;NA;1.399;NA;1.449;NA;1.469;NA;NA;1.579;NA;"ALBACETE";"OM";"REPSOL";"P";0;0;5167;133;"02";"07";FALSE
"02600";"CARRETERA OSSA DE MONTIEL KM. 21";"L-S: 06:00-22:00; D: 06:00-15:00";39.257528;"VILLARROBLEDO";-2.613778;"I";"Villarrobledo";NA;NA;NA;NA;NA;1.389;0.986;1.439;NA;1.469;NA;NA;1.579;NA;"ALBACETE";"OM";"REPSOL";"P";0;0;5123;133;"02";"07";FALSE
"02600";"AVENIDA REYES CATOLICOS, 26";"L-V: 07:00-21:00; S: 08:00-15:00";39.261472;"VILLARROBLEDO";-2.599417;"D";"Villarrobledo";NA;NA;NA;NA;NA;1.389;NA;1.455;NA;1.493;NA;NA;NA;NA;"ALBACETE";"OM";"CEPSA";"P";0;0;4785;133;"02";"07";FALSE
"02600";"CARRETERA N-310 KM. 120,5";"L-V: 08:00-20:00";39.198;"VILLARROBLEDO";-2.713722;"D";"Villarrobledo";NA;NA;NA;NA;NA;1.395;1.039;1.461;NA;1.498;NA;NA;1.63;NA;"ALBACETE";"OM";"CEPSA";"P";0;0;5184;133;"02";"07";FALSE
"02600";"AUTOVIA A-43 KM. 390";"L-D: 06:00-23:59";39.205194;"VILLARROBLEDO";-2.708528;"I";"Villarrobledo";NA;NA;NA;NA;NA;1.395;NA;1.461;NA;1.498;NA;NA;1.63;NA;"ALBACETE";"OM";"CEPSA";"P";0;0;12146;133;"02";"07";FALSE
"02600";"CALLE GENERAL MARTI, 2";"L-D: 24H";39.266417;"VILLARROBLEDO";-2.596944;"D";"Villarrobledo";NA;NA;NA;NA;NA;1.257;NA;NA;NA;1.357;NA;NA;NA;NA;"ALBACETE";"dm";"PLENOIL";"P";0;0;14804;133;"02";"07";TRUE
"02600";"AVENIDA REYES CATÓLICOS, 108";"L-D: 06:00-22:00";39.272056;"VILLARROBLEDO";-2.594111;"N";"Villarrobledo";NA;NA;NA;NA;NA;1.339;NA;1.379;NA;1.444;NA;NA;NA;NA;"ALBACETE";"OM";"GALP";"P";0;0;5327;133;"02";"07";FALSE
"02600";"CARRETERA MUNERA KM. 0,500";"L-D: 24H";39.250806;"VILLARROBLEDO";-2.601028;"I";"Villarrobledo";NA;NA;NA;NA;NA;1.213;0.776;NA;NA;1.354;NA;NA;NA;NA;"ALBACETE";"dm";"VINICOLA DE VILLARROBLEDO";"R";0;0;14539;133;"02";"07";TRUE
"02480";"CARRETERA DE HELLIN KM. 42";"L-D: 07:00-21:00";38.368667;"YESTE";-2.314667;"I";"Yeste";NA;NA;NA;NA;NA;1.399;NA;1.469;NA;1.499;NA;NA;NA;NA;"ALBACETE";"OM";"CEPSA";"P";0;0;4796;138;"02";"07";FALSE
"03698";"CARRETERA SAN VICENTE - AGOST KM. 11";"L-D: 06:00-22:00";38.434417;"AGOST";-0.63725;"I";"Agost";NA;NA;NA;NA;NA;1.399;1.022;1.469;NA;1.519;NA;NA;NA;NA;"ALICANTE";"OM";"PETRONOR";"P";0;0;3683;140;"03";"10";TRUE
"03698";"AUTOPISTA AP 7 KM. 696";"L-D: 24H";38.408861;"AGOST";-0.599444;"I";"Agost";NA;NA;NA;NA;NA;1.439;NA;1.509;NA;1.554;NA;NA;1.694;NA;"ALICANTE";"OM";"GALP";"P";0;0;11305;140;"03";"10";FALSE
"03698";"AUTOPISTA AP 7 KM. 696";"L-D: 24H";38.406528;"AGOST";-0.599972;"D";"Agost";NA;NA;NA;NA;NA;1.439;NA;1.509;NA;1.559;NA;NA;1.699;NA;"ALICANTE";"OM";"GALP";"P";0;0;11306;140;"03";"10";FALSE
"03698";"CARRETERA AGOST-NOVELDA KM 2 KM. 2";"L-D: 06:00-22:00";38.429417;"AGOST";-0.66225;"I";"Agost";NA;NA;NA;NA;NA;1.389;1.023;1.439;NA;1.499;NA;NA;1.639;NA;"ALICANTE";"dm";"VALCARCE";"P";0;0;9478;140;"03";"10";TRUE
"03340";"CALLE POLIGONO INDUSTRIAL MOS DEL BOU, CALLE EL ESPARTO, 5";"L-D: 24H";38.168111;"ALBATERA";-0.889167;"D";"Albatera";NA;NA;NA;NA;NA;1.369;NA;1.439;NA;1.459;NA;NA;NA;NA;"ALICANTE";"dm";"SUVER GASOLEOS";"P";0;0;14191;143;"03";"10";TRUE
"03340";"CARRETERA N-340 KM. 702,1";"L-D: 06:00-22:00";38.199389;"ALBATERA";-0.848833;"D";"Albatera";NA;NA;NA;NA;NA;1.369;NA;1.439;NA;1.479;NA;NA;NA;NA;"ALICANTE";"dm";"FTH";"P";0;0;3565;143;"03";"10";TRUE
"03340";"CARRETERA CATRAL-ALBATERA KM. 4,2";"L-D: 24H";38.175028;"ALBATERA";-0.854056;"I";"Albatera";NA;NA;1.19;1.11;NA;1.429;1.075;1.509;NA;1.539;NA;NA;1.669;NA;"ALICANTE";"OM";"REPSOL";"P";0;0;3692;143;"03";"10";FALSE
"03340";"CARRETERA N-340 KM. 696,7";"L-D: 24H";38.165222;"ALBATERA";-0.89475;"D";"Albatera";NA;NA;NA;NA;NA;1.419;1.069;1.499;NA;1.539;NA;NA;1.659;NA;"ALICANTE";"dm";"REPSOL";"P";0;0;3588;143;"03";"10";FALSE
"03340";"N-340 km 696,7";"L-D: 24H";38.199417;"ALBATERA";-0.848722;"I";"Albatera";NA;NA;NA;NA;NA;1.419;NA;1.499;NA;1.539;NA;NA;1.659;NA;"ALICANTE";"dm";"REPSOL";"P";0;0;3589;143;"03";"10";FALSE
"03728";"POLIGONO PLAZA MOSQUERA, 6";"L-D: 24H";38.751972;"ALCALALI";-0.042083;"D";"Alcalalí";NA;NA;NA;NA;NA;1.409;NA;1.489;NA;1.539;NA;NA;NA;NA;"ALICANTE";"dm";"REPSOL";"P";0;0;14852;144;"03";"10";FALSE
"03801";"CALLE ALICANTE, 58";"L-D: 06:00-22:00";38.689389;"ALCOY/ALCOI";-0.480139;"D";"Alcoy/Alcoi";NA;NA;NA;NA;NA;1.359;NA;1.449;NA;1.499;NA;NA;1.649;NA;"ALICANTE";"dm";"BP";"P";0;0;14115;147;"03";"10";FALSE
"03801";"CALLE ALICANTE, 62";"L-D: 05:00-23:00";38.688639;"ALCOY/ALCOI";-0.479611;"D";"Alcoy/Alcoi";NA;NA;NA;NA;NA;1.379;NA;1.459;NA;1.519;NA;NA;1.659;NA;"ALICANTE";"OM";"SHELL";"P";0;0;9298;147;"03";"10";FALSE
"03801";"CALLE ALICANTE, 62";"L-D: 24H";38.689083;"ALCOY/ALCOI";-0.479694;"D";"Alcoy/Alcoi";NA;NA;NA;NA;0.799;1.339;NA;NA;NA;1.469;NA;NA;NA;NA;"ALICANTE";"dm";"MASOIL ALCOY";"P";0;0;13370;147;"03";"10";TRUE
"03800";"CALLE VALENCIA ESQ C/SANT JOAN BOSCO, 1";"L-D: 24H";38.711556;"ALCOY/ALCOI";-0.46625;"D";"Alcoy/Alcoi";NA;NA;NA;NA;NA;1.289;NA;NA;NA;1.419;NA;NA;NA;NA;"ALICANTE";"dm";"GASEXPRESS";"P";0;0;14200;147;"03";"10";TRUE
"03800";"N-340 km 131,000";"L-D: 06:00-22:00";38.683389;"ALCOY/ALCOI";-0.471306;"N";"Alcoy/Alcoi";NA;NA;NA;NA;NA;1.379;NA;1.449;NA;1.519;NA;NA;1.659;NA;"ALICANTE";"OM";"GALP";"P";0;0;3728;147;"03";"10";FALSE
"03800";"CL OLIVER, S.N.";"L-D: 06:00-22:00";38.691889;"ALCOY/ALCOI";-0.489611;"D";"Alcoy/Alcoi";NA;NA;NA;NA;NA;1.389;NA;1.469;NA;1.529;NA;NA;1.649;NA;"ALICANTE";"dm";"PETRONOR";"P";0;0;3586;147;"03";"10";TRUE
"03800";"PG COTES BAIXES,CALLE C,PARC.1, 0";"L-D: 06:00-22:00";38.714361;"ALCOY/ALCOI";-0.462528;"D";"Alcoy/Alcoi";NA;NA;NA;NA;NA;1.389;NA;1.479;NA;1.519;1.559;NA;1.649;NA;"ALICANTE";"OM";"REPSOL";"P";0;0;3475;147;"03";"10";FALSE
"03800";"AVENIDA TIRANT, S/N";"L-D: 06:00-22:00";38.70875;"ALCOY/ALCOI";-0.472556;"D";"Alcoy/Alcoi";NA;NA;NA;NA;0.869;1.389;NA;1.479;NA;1.519;NA;NA;1.649;NA;"ALICANTE";"OM";"REPSOL";"P";0;0;11428;147;"03";"10";FALSE
"03800";"Alicante, 1 - P.I. Beniata";"L-D: 24H";38.695083;"ALCOY/ALCOI";-0.477972;"N";"Alcoy/Alcoi";NA;NA;NA;NA;NA;1.284;NA;NA;NA;1.414;NA;NA;NA;NA;"ALICANTE";"OM";"GASOLINERA ALCOY";"P";0;0;3713;147;"03";"10";TRUE
"03580";"CL AVDA. DEL PAIS VALENCIANO S.N.";"L-D: 06:00-22:00";38.581361;"ALFAS DEL PI (L')";-0.105389;"D";"Alfàs del Pi (l')";NA;NA;NA;NA;NA;1.419;NA;1.499;NA;1.549;NA;NA;1.689;NA;"ALICANTE";"OM";"REPSOL";"P";0;0;3623;149;"03";"10";FALSE
"03580";"AVENIDA ALBIR, 90";"L-D: 24H";38.574028;"ALFAS DEL PI (L')";-0.076694;"D";"Alfàs del Pi (l')";NA;NA;NA;NA;NA;1.245;NA;NA;NA;1.387;NA;NA;NA;NA;"ALICANTE";"dm";"PLENOIL";"P";0;0;15006;149;"03";"10";TRUE
"03580";"AVENIDA PAIS VALENCIÁ, 47";"L-D: 24H";38.582417;"ALFAS DEL PI (L')";-0.106278;"D";"Alfàs del Pi (l')";NA;NA;NA;NA;NA;1.245;NA;NA;NA;1.387;NA;NA;NA;NA;"ALICANTE";"dm";"PLENOIL";"P";0;0;15099;149;"03";"10";TRUE
"03580";"CALLE MALLORCA, CTRA. CV-763, 1";"L-D: 07:00-23:00";38.571139;"ALFAS DEL PI (L')";-0.0965;"D";"Alfàs del Pi (l')";NA;NA;NA;NA;NA;1.419;NA;1.509;NA;1.559;NA;NA;1.701;NA;"ALICANTE";"dm";"BP ALFAZ DEL PI";"P";0;0;14851;149;"03";"10";TRUE
"03581";"AP-1535 km 2,000";"L-D: 06:00-22:00";38.567722;"ALFAS DEL PI (L')";-0.082972;"N";"Alfàs del Pi (l')";NA;NA;NA;NA;NA;1.379;NA;1.449;NA;1.549;NA;NA;1.689;NA;"ALICANTE";"OM";"GALP";"P";0;0;3733;149;"03";"10";FALSE
"03169";"POLIGONO SECTOR VIII - EL ZOCO, S/N";"L-D: 06:00-22:00";38.058389;"ALGORFA";-0.746611;"N";"Algorfa";NA;NA;NA;NA;NA;1.405;NA;1.495;NA;1.535;NA;NA;1.677;NA;"ALICANTE";"dm";"BP";"P";0;0;11929;150;"03";"10";FALSE
"03668";"CALLE SAN JUAN, 32";"L-D: 06:30-21:00";38.339222;"ALGUEÑA";-0.998222;"D";"Algueña";NA;NA;NA;NA;NA;1.369;0.999;1.449;NA;1.509;NA;NA;NA;NA;"ALICANTE";"dm";"CEPSA";"P";0;0;3416;151;"03";"10";FALSE
"03004";"CL PLAZA SAN ANTONIO, 9";"L-V: 08:00-21:00; S-D: 09:00-14:00";38.351361;"ALICANTE/ALACANT";-0.487472;"D";"Alicante/Alacant";NA;NA;NA;NA;NA;1.379;NA;NA;NA;1.559;NA;NA;NA;NA;"ALICANTE";"OM";"REPSOL";"P";0;0;3643;152;"03";"10";FALSE
"03013";"AVENIDA PADRE ESPLÁ, 36";"L-V: 07:30-21:00; S: 08:00-15:00; D: 10:00-15:00";38.357;"ALICANTE/ALACANT";-0.47675;"N";"Alicante/Alacant";NA;NA;NA;NA;NA;1.379;NA;NA;NA;1.549;NA;NA;NA;NA;"ALICANTE";"OM";"REPSOL";"P";0;0;3673;152;"03";"10";FALSE
"03013";"AVENIDA DENIA, 80";"L-D: 24H";38.359278;"ALICANTE/ALACANT";-0.466972;"D";"Alicante/Alacant";NA;NA;NA;NA;NA;1.389;NA;1.479;NA;1.529;NA;NA;1.671;NA;"ALICANTE";"OM";"BP SANDOVAL MD";"P";0;0;10940;152;"03";"10";TRUE
"03013";"AVENIDA DENIA, 75";"L-D: 24H";38.359667;"ALICANTE/ALACANT";-0.467361;"I";"Alicante/Alacant";NA;NA;NA;NA;NA;1.389;NA;1.479;NA;1.529;NA;NA;1.671;NA;"ALICANTE";"OM";"BP SANDOVAL MI";"P";0;0;10941;152;"03";"10";TRUE
"03009";"AVENIDA NOVELDA, 179";"L-D: 07:00-00:00";38.370222;"ALICANTE/ALACANT";-0.4975;"D";"Alicante/Alacant";NA;NA;NA;NA;NA;1.379;NA;1.429;NA;1.549;NA;NA;1.669;NA;"ALICANTE";"OM";"REPSOL";"P";0;0;3550;152;"03";"10";FALSE
"03009";"CALLE FORTUNY, S/N";"L-V: 07:30-21:30; S-D: 08:30-14:30";38.375333;"ALICANTE/ALACANT";-0.499444;"I";"Alicante/Alacant";NA;NA;NA;NA;NA;1.379;NA;1.459;NA;1.549;NA;NA;1.669;NA;"ALICANTE";"OM";"REPSOL";"P";0;0;12283;152;"03";"10";FALSE
"03009";"AVENIDA DE LA UNIVERSIDAD, SN";"L-D: 24H";38.376194;"ALICANTE/ALACANT";-0.508861;"D";"Alicante/Alacant";NA;NA;NA;NA;0.869;1.389;NA;1.469;NA;1.559;NA;NA;1.679;NA;"ALICANTE";"OM";"REPSOL";"P";0;0;3690;152;"03";"10";FALSE
"03009";"AVENIDA UNIVERSIDAD, S/N";"L-D: 24H";38.374139;"ALICANTE/ALACANT";-0.506833;"N";"Alicante/Alacant";NA;NA;NA;NA;NA;1.379;NA;1.459;NA;1.559;NA;NA;1.709;NA;"ALICANTE";"OM";"SHELL";"P";0;0;8379;152;"03";"10";FALSE
"03009";"CALLE JATIVA, S/N";"L-D: 24H";38.377722;"ALICANTE/ALACANT";-0.504722;"D";"Alicante/Alacant";NA;NA;NA;NA;NA;1.209;NA;NA;NA;1.329;NA;NA;NA;NA;"ALICANTE";"dm";"GM OIL";"P";0;0;12649;152;"03";"10";TRUE
"03010";"AVENIDA NOVELDA, 70";"L-S: 07:30-21:30; D: 08:00-16:00";38.364222;"ALICANTE/ALACANT";-0.494306;"D";"Alicante/Alacant";NA;NA;NA;NA;NA;1.379;NA;1.429;NA;1.549;NA;NA;NA;NA;"ALICANTE";"OM";"REPSOL";"P";0;0;10245;152;"03";"10";FALSE
"03012";"AVENIDA JIJONA, 88";"L-S: 06:30-22:30; D: 07:00-22:30";38.358556;"ALICANTE/ALACANT";-0.483944;"D";"Alicante/Alacant";NA;NA;NA;NA;NA;1.379;NA;1.469;NA;1.559;NA;NA;1.669;NA;"ALICANTE";"OM";"REPSOL";"P";0;0;3593;152;"03";"10";FALSE
"03014";"AVENIDA GASTON CASTELLO, 58";"L-D: 07:00-21:00";38.375111;"ALICANTE/ALACANT";-0.486944;"D";"Alicante/Alacant";NA;NA;NA;NA;NA;1.385;NA;1.451;NA;1.519;NA;NA;NA;NA;"ALICANTE";"dm";"CEPSA";"P";0;0;3421;152;"03";"10";FALSE
"03015";"AVENIDA ANTONIO RAMOS CARRATALA, 56";"L-D: 24H";38.370694;"ALICANTE/ALACANT";-0.466806;"N";"Alicante/Alacant";NA;NA;NA;NA;NA;1.175;NA;1.306;NA;1.315;NA;NA;1.564;NA;"ALICANTE";"dm";"ALCAMPO";"P";0;0;13283;152;"03";"10";TRUE
"03540";"AVDA. DE LA CONDOMINA, 47 (C-190 km 3,7)";"L-D: 24H";38.363639;"ALICANTE/ALACANT";-0.434556;"D";"Alicante/Alacant";NA;NA;NA;NA;NA;1.389;NA;1.489;NA;1.528;1.648;NA;NA;NA;"ALICANTE";"OM";"CEPSA";"P";0;0;3417;152;"03";"10";FALSE
"03016";"AVENIDA DENIA, 150";"L-D: 07:00-23:00";38.375472;"ALICANTE/ALACANT";-0.453806;"D";"Alicante/Alacant";NA;NA;NA;NA;NA;1.389;NA;1.479;NA;1.529;NA;NA;1.671;NA;"ALICANTE";"OM";"BP VISTAHERMOSA";"P";0;0;3603;152;"03";"10";TRUE
"03016";"VIAL FLORA DE ESPAÑA, 28";"L-D: 06:30-22:00";38.369111;"ALICANTE/ALACANT";-0.444778;"N";"Alicante/Alacant";NA;NA;NA;NA;0.836;1.374;NA;1.466;NA;1.507;NA;NA;1.638;NA;"ALICANTE";"dm";"PETROALACANT";"P";0;0;13851;152;"03";"10";TRUE
"03016";"AVENIDA DENIA, 60";"L-D: 24H";38.355389;"ALICANTE/ALACANT";-0.472306;"N";"Alicante/Alacant";NA;NA;NA;NA;0.838;1.385;NA;1.469;NA;1.514;NA;NA;1.649;NA;"ALICANTE";"dm";"GOTETA";"P";0;0;3580;152;"03";"10";TRUE
"03016";"VIAL CONEXION N-332 Y A-7, S/N";"L-D: 06:00-22:00";38.37;"ALICANTE/ALACANT";-0.446667;"N";"Alicante/Alacant";NA;NA;NA;NA;NA;1.379;NA;1.469;NA;1.509;NA;NA;1.659;NA;"ALICANTE";"dm";"GALP";"P";0;0;8300;152;"03";"10";FALSE
"03016";"CALLE ANTONIO RAMOS CARRATALÁ, 26";"L-D: 24H";38.369528;"ALICANTE/ALACANT";-0.464028;"D";"Alicante/Alacant";NA;NA;NA;NA;NA;1.175;NA;NA;NA;1.315;NA;NA;NA;NA;"ALICANTE";"dm";"PLENOIL";"P";0;0;15170;152;"03";"10";TRUE
"03112";"CALLE MUSICO JOSE TORREGROSA, 33";"L-D: 24H";38.383583;"ALICANTE/ALACANT";-0.48975;"D";"Alicante/Alacant";NA;NA;NA;NA;NA;1.265;NA;NA;NA;1.407;NA;NA;NA;NA;"ALICANTE";"dm";"AVANZA";"P";0;0;13568;152;"03";"10";TRUE
"03112";"CARRETERA A-214 KM. 5";"L-D: 06:00-22:00";38.401;"ALICANTE/ALACANT";-0.47775;"I";"Alicante/Alacant";NA;NA;NA;NA;NA;1.379;NA;1.469;NA;1.549;NA;NA;1.669;NA;"ALICANTE";"OM";"REPSOL";"P";0;0;3470;152;"03";"10";FALSE
"03011";"AVENIDA NOVELDA, 216";"L-D: 24H";38.376944;"ALICANTE/ALACANT";-0.499722;"D";"Alicante/Alacant";NA;NA;NA;NA;NA;1.235;NA;NA;NA;1.365;NA;NA;NA;NA;"ALICANTE";"dm";"PETROPRIX";"P";0;0;13585;152;"03";"10";TRUE
"03011";"AVENIDA PINTOR GASTON CASTELLO, 1";"L-D: 06:00-22:00";38.370083;"ALICANTE/ALACANT";-0.486611;"I";"Alicante/Alacant";NA;NA;NA;NA;NA;1.398;NA;1.484;NA;1.548;NA;NA;1.688;NA;"ALICANTE";"dm";"BP REJAS VERDES";"P";0;0;10710;152;"03";"10";TRUE
"03011";"AVENIDA NOVELDA, 204";"L-D: 24H";38.375972;"ALICANTE/ALACANT";-0.498972;"D";"Alicante/Alacant";NA;NA;NA;NA;NA;1.279;NA;NA;NA;1.415;NA;NA;NA;NA;"ALICANTE";"dm";"VCC ALICANTE";"P";0;0;13572;152;"03";"10";TRUE
"03559";"AVENIDA DE DENIA, 183";"L-D: 07:00-23:00";38.385639;"SANTA FAZ";-0.449972;"I";"Alicante/Alacant";NA;NA;NA;NA;NA;1.385;NA;1.485;NA;1.519;1.579;NA;NA;NA;"ALICANTE";"dm";"E.S. SANTA FAZ";"P";0;0;13759;152;"03";"10";TRUE
"03559";"CARRETERA 112,6 KM. N-332";"L-D: 06:30-22:30";38.38625;"SANTA FAZ";-0.447417;"D";"Alicante/Alacant";NA;NA;NA;NA;NA;1.399;NA;1.449;NA;1.539;NA;NA;1.649;NA;"ALICANTE";"OM";"REPSOL";"P";0;0;3680;152;"03";"10";FALSE
"03006";"CARRETERA N-330 KM. 409";"L-D: 06:30-21:00";38.344944;"ALICANTE/ALACANT";-0.523167;"I";"Alicante/Alacant";NA;NA;NA;NA;NA;1.399;NA;1.449;NA;1.539;NA;NA;1.669;NA;"ALICANTE";"OM";"PETRONOR";"P";0;0;3684;152;"03";"10";TRUE
"03006";"CARRETERA MADRID ESQ.RIO JUCAR KM. 19";"L-V: 06:00-22:00; S-D: 07:00-21:00";38.344611;"ALICANTE/ALACANT";-0.522944;"D";"Alicante/Alacant";NA;NA;NA;NA;0.869;1.399;NA;1.449;NA;1.539;NA;NA;1.669;NA;"ALICANTE";"OM";"REPSOL";"P";0;0;11474;152;"03";"10";FALSE
"03006";"AVDA. ORIHUELA, S/N - ESQUINA VIA PARQUE";"L-D: 06:00-00:00";38.345583;"ALICANTE/ALACANT";-0.517889;"N";"Alicante/Alacant";NA;NA;NA;NA;NA;1.389;NA;1.469;NA;1.539;NA;NA;1.679;NA;"ALICANTE";"OM";"SHELL";"P";0;0;9119;152;"03";"10";FALSE
"03006";"AVENIDA NEPTUNO, 4";"L-V: 06:00-22:00; S: 07:00-15:00";38.344;"ALICANTE/ALACANT";-0.524194;"D";"Alicante/Alacant";NA;NA;NA;NA;NA;1.371;NA;1.427;NA;1.503;NA;NA;1.639;NA;"ALICANTE";"dm";"CONFORT AUTO";"P";0;0;11716;152;"03";"10";TRUE
"03006";"CARRETERA N-330A KM. 407,7";"L-V: 05:00-21:00; S: 07:00-14:00";38.343611;"ALICANTE/ALACANT";-0.545111;"D";"Alicante/Alacant";NA;NA;NA;NA;NA;1.389;NA;1.455;NA;1.519;NA;NA;NA;NA;"ALICANTE";"dm";"CEPSA";"P";0;0;3406;152;"03";"10";FALSE
"03006";"POLIGONO PLA VALLONGA CALLE 8, PARCELA 15";"L-V: 06:00-21:00; S: 07:00-15:00";38.34825;"ALICANTE/ALACANT";-0.555389;"D";"Alicante/Alacant";NA;NA;NA;NA;NA;1.368;1.029;1.429;NA;1.499;NA;NA;1.638;NA;"ALICANTE";"dm";"PETROALACANT";"P";0;0;9191;152;"03";"10";TRUE
"03006";"CALLE OCAÑA, 16";"L-D: 24H";38.345056;"ALICANTE/ALACANT";-0.522278;"D";"Alicante/Alacant";NA;NA;NA;NA;NA;1.329;NA;NA;NA;1.409;NA;NA;NA;NA;"ALICANTE";"dm";"BALLENOIL";"P";0;0;13593;152;"03";"10";TRUE
"03008";"CALLE ARTES GRAFICAS, 89";"L-D: 24H";38.335694;"ALICANTE/ALACANT";-0.512833;"N";"Alicante/Alacant";1.348;NA;NA;NA;NA;1.368;NA;NA;NA;1.498;NA;NA;1.618;NA;"ALICANTE";"dm";"TAMOIL";"P";0;7;3731;152;"03";"10";TRUE
"03008";"AVENIDA ELCHE, 150";"L-D: 24H";38.303611;"ALICANTE/ALACANT";-0.521389;"I";"Alicante/Alacant";NA;NA;NA;NA;NA;1.245;NA;NA;NA;1.385;NA;NA;NA;NA;"ALICANTE";"dm";"PETROPRIX";"P";0;0;13584;152;"03";"10";TRUE
"03008";"AVENIDA RAMÓN GÓMEZ SEMPERE, 4";"L-D: 06:00-22:00";38.330583;"ALICANTE/ALACANT";-0.5135;"N";"Alicante/Alacant";NA;NA;NA;NA;NA;1.379;NA;1.459;NA;1.509;NA;NA;1.649;NA;"ALICANTE";"dm";"GALP";"P";0;0;3729;152;"03";"10";FALSE
"03008";"AVENIDA ELCHE (N-332 P.K. 102), 16";"L-D: 24H";38.337778;"ALICANTE/ALACANT";-0.500389;"I";"Alicante/Alacant";NA;NA;NA;NA;NA;1.389;NA;1.455;NA;1.528;1.628;NA;NA;NA;"ALICANTE";"OM";"CEPSA";"P";0;0;3412;152;"03";"10";FALSE
"03007";"AVENIDA ALCALDE LORENZO CARBONELL, 71";"L-D: 06:00-22:00";38.338611;"ALICANTE/ALACANT";-0.516;"I";"Alicante/Alacant";NA;NA;NA;NA;NA;1.389;NA;1.455;NA;1.528;1.588;NA;NA;NA;"ALICANTE";"OM";"CEPSA";"P";0;0;9302;152;"03";"10";FALSE
"03007";"CALLE ALCALDE LORENZO CARBONELL, S/N ESQUINA VIA PARQUE, S/N";"L-D: 24H";38.340028;"ALICANTE/ALACANT";-0.51775;"N";"Alicante/Alacant";NA;NA;NA;NA;NA;1.379;NA;1.409;NA;1.519;NA;NA;NA;NA;"ALICANTE";"dm";"CARREFOUR";"P";0;0;12961;152;"03";"10";TRUE
"03007";"CARRETERA OCAÑA KM. 7";"L-D: 24H";38.344917;"ALICANTE/ALACANT";-0.518333;"I";"Alicante/Alacant";NA;NA;NA;NA;0.836;1.368;NA;1.429;NA;1.499;NA;NA;1.638;NA;"ALICANTE";"dm";"PETRO ALACANT";"P";0;0;12485;152;"03";"10";TRUE
"03007";"N-330-P.K. 409,1 P.I. El Espartal";"L-V: 06:00-20:00; S: 08:00-14:00";38.34525;"ALICANTE/ALACANT";-0.520556;"N";"Alicante/Alacant";NA;NA;NA;NA;NA;1.379;NA;1.459;NA;1.509;NA;NA;1.649;NA;"ALICANTE";"dm";"GALP";"P";0;0;3727;152;"03";"10";FALSE
"03007";"Rosa de los Vientos (esq. Camino Viejo de Elche)";"L-V: 06:00-20:00; S: 08:00-14:00";38.337778;"ALICANTE/ALACANT";-0.523139;"N";"Alicante/Alacant";NA;NA;NA;NA;NA;1.379;NA;1.459;NA;1.509;NA;NA;1.649;NA;"ALICANTE";"dm";"GALP";"P";0;0;3749;152;"03";"10";FALSE
"03114";"POLIGONO ZONA INDUSTRIAL A, POLIGONO B, S/N";"L-D: 24H";38.344139;"BACAROT (EL)";-0.538472;"D";"Alicante/Alacant";NA;NA;NA;NA;NA;1.389;1.029;1.455;NA;1.518;1.578;NA;NA;NA;"ALICANTE";"OM";"CEPSA";"P";0;0;3446;152;"03";"10";FALSE
"03113";"CARRETERA N-330 A KM. 401";"L-V: 07:00-21:00; S: 08:00-14:00";38.342361;"FONT-CALENT";-0.607083;"I";"Alicante/Alacant";NA;NA;NA;NA;NA;1.399;NA;1.469;NA;1.529;NA;NA;1.649;NA;"ALICANTE";"dm";"PETRONOR";"P";0;0;3660;152;"03";"10";TRUE
"03699";"CARRETERA CV 820 KM. 1,4";"L-D: 24H";38.411;"MORALET";-0.565972;"I";"Alicante/Alacant";NA;NA;NA;NA;NA;1.369;NA;1.449;NA;1.509;NA;NA;1.619;NA;"ALICANTE";"dm";"REPSOL";"P";0;0;1893;152;"03";"10";FALSE
"03699";"CARRETERA CV 820 KM. 1,3";"L-D: 06:00-22:00";38.4115;"MORALET";-0.565444;"D";"Alicante/Alacant";NA;NA;NA;NA;NA;1.399;NA;1.479;NA;1.539;NA;NA;1.719;NA;"ALICANTE";"dm";"REPSOL";"P";0;0;9455;152;"03";"10";FALSE
"03114";"CARRETERA BACAROT, 4 KM.";"L-V: 08:00-14:00 y 16:00-18:00; S: 08:00-12:00";38.343333;"ALICANTE/ALACANT";-0.545833;"D";"Alicante/Alacant";NA;NA;NA;NA;NA;NA;0.94;NA;NA;NA;NA;NA;NA;NA;"ALICANTE";"dm";"AGRICOOP";"R";0;0;9901;152;"03";"10";TRUE
"03160";"AVENIDA ORIHUELA, 17";"L-D: 06:00-00:00";38.104778;"ALMORADI";-0.797083;"N";"Almoradí";NA;NA;NA;NA;NA;1.409;1.059;1.499;NA;1.539;NA;NA;1.689;NA;"ALICANTE";"dm";"REPSOL";"P";0;0;9717;153;"03";"10";FALSE
"03160";"Principe De EspañA, 10";"L-V: 06:00-22:00; S-D: 07:00-22:00";38.115139;"ALMORADI";-0.78875;"N";"Almoradí";NA;NA;NA;NA;NA;1.399;NA;1.489;NA;1.529;NA;NA;1.671;NA;"ALICANTE";"dm";"BP";"P";0;0;3721;153;"03";"10";FALSE
"03160";"AVENIDA COMUNIDAD EUROPEA, 1";"L-D: 06:30-22:30";38.099361;"ALMORADI";-0.796528;"D";"Almoradí";NA;NA;NA;NA;NA;1.309;0.989;1.369;NA;1.429;NA;NA;1.539;NA;"ALICANTE";"dm";"LAS MAROMAS";"P";0;0;9613;153;"03";"10";TRUE
"03160";"CARRETERA DE ROJALES KM. 1";"L-S: 06:00-22:00; D: 07:00-21:00";38.103833;"ALMORADI";-0.781472;"D";"Almoradí";NA;NA;NA;NA;NA;1.289;NA;1.349;NA;1.409;1.489;NA;NA;NA;"ALICANTE";"dm";"GASOLEO EXPRES";"P";0;0;3514;153;"03";"10";TRUE
"03160";"CARRETERA C-3321 KM. 38,1";"L-D: 06:00-22:00";38.123556;"ALMORADI";-0.781806;"I";"Almoradí";NA;NA;NA;NA;NA;1.389;0.965;1.455;NA;1.518;1.578;NA;NA;NA;"ALICANTE";"OM";"CEPSA";"P";0;0;3410;153;"03";"10";FALSE
"03160";"CALLE PARTIDA DE LA ERA ALTA, 57";"L-D: 24H";38.122583;"ALMORADI";-0.783083;"I";"Almoradí";NA;NA;NA;NA;NA;1.269;NA;NA;NA;1.389;NA;NA;NA;NA;"ALICANTE";"dm";"PETROPRIX";"P";0;0;14211;153;"03";"10";TRUE
"03160";"CALLE REINO UNIDO, 1";"L-D: 24H";38.100389;"ALMORADI";-0.800556;"D";"Almoradí";NA;NA;NA;NA;NA;1.289;NA;NA;NA;1.409;NA;NA;NA;NA;"ALICANTE";"dm";".ES CARBURANTES";"P";0;0;14626;153;"03";"10";TRUE
"03590";"CALLE CUESTA DE LAS NARICES, 11";"L-D: 24H";38.594194;"ALTEA";-0.056056;"I";"Altea";NA;NA;NA;NA;NA;1.255;NA;NA;NA;1.387;NA;NA;NA;NA;"ALICANTE";"dm";"PETROPRIX";"P";0;0;14551;156;"03";"10";TRUE
"03590";"CARRETERA N-332 KM. 155,5";"L-D: 06:00-22:00";38.586556;"ALTEA";-0.064694;"I";"Altea";NA;NA;NA;NA;NA;1.409;NA;1.499;NA;1.559;NA;NA;1.709;NA;"ALICANTE";"OM";"REPSOL";"P";0;0;3517;156;"03";"10";FALSE
"03590";"CARRETERA LA NUCIA KM. 2,8";"L: 07:00-22:00";38.605917;"ALTEA";-0.078472;"D";"Altea";NA;NA;NA;NA;NA;1.409;NA;1.499;NA;1.559;NA;NA;1.709;NA;"ALICANTE";"OM";"REPSOL";"P";0;0;3484;156;"03";"10";FALSE
"03590";"CALLE GARGANES, 42";"L-D: 06:00-00:00";38.604722;"ALTEA";-0.048611;"D";"Altea";NA;NA;NA;NA;NA;1.419;NA;1.509;NA;1.569;NA;NA;1.719;NA;"ALICANTE";"OM";"REPSOL";"P";0;0;3402;156;"03";"10";FALSE
"03590";"Carrer De La Mar, 157";"L-D: 07:00-23:00";38.593222;"ALTEA";-0.054917;"N";"Altea";NA;NA;NA;NA;NA;1.409;NA;1.489;NA;1.549;NA;NA;1.699;NA;"ALICANTE";"dm";"GALP";"P";0;0;3712;156;"03";"10";FALSE
"03599";"CARRETERA CV-755 KM. 9,2";"L-D: 06:00-22:00";38.62675;"ALTEA LA VELLA";-0.0385;"I";"Altea";NA;NA;NA;NA;NA;1.409;NA;1.475;NA;1.569;NA;NA;1.701;NA;"ALICANTE";"dm";"CEPSA ELF";"P";0;0;3444;156;"03";"10";TRUE
"03680";"AVENIDA 3 DE AGOSTO, 23";"L-D: 06:00-22:00";38.336722;"ASPE";-0.774111;"D";"Aspe";NA;NA;NA;NA;NA;1.369;0.999;1.429;NA;1.499;NA;NA;1.619;NA;"ALICANTE";"dm";"REPSOL";"P";0;0;3542;157;"03";"10";FALSE
"03680";"CARRETERA NOVELDA KM. 22";"L-V: 06:00-22:00; S: 08:00-15:00";38.358167;"ASPE";-0.770917;"D";"Aspe";NA;NA;NA;NA;NA;1.353;NA;1.439;NA;1.491;NA;NA;1.641;NA;"ALICANTE";"dm";"CONFORT AUTO";"P";0;0;11718;157;"03";"10";TRUE
"03680";"POLIGONO TRES HERMANAS   ALCOHOLERA, 11";"L-S: 06:00-22:00; D: 07:00-15:00";38.325917;"ASPE";-0.767139;"N";"Aspe";NA;NA;NA;NA;NA;1.389;NA;1.479;NA;1.529;NA;NA;1.671;NA;"ALICANTE";"dm";"BP";"P";0;0;10582;157;"03";"10";FALSE
"03680";"AVD.DE NAVARRA 151";"L-D: 07:00-22:00";38.354028;"ASPE";-0.772639;"N";"Aspe";NA;NA;NA;NA;NA;1.375;NA;1.445;NA;1.509;NA;NA;1.651;NA;"ALICANTE";"dm";"CEPSA ESPAÑA S.A.";"P";0;0;1943;157;"03";"10";TRUE
"03680";"POLIGONO C/ IBI, S/N";"L-S: 06:00-22:00";38.356139;"ASPE";-0.770417;"D";"Aspe";NA;NA;NA;NA;NA;1.359;NA;1.429;NA;1.499;NA;NA;NA;NA;"ALICANTE";"dm";"LEVANTINA";"P";0;0;11522;157;"03";"10";TRUE
"03680";"AVENIDA TRES DE AGOSTO, 20";"L-D: 24H";38.341583;"ASPE";-0.773361;"D";"Aspe";NA;NA;NA;NA;NA;1.267;NA;NA;NA;1.397;NA;NA;NA;NA;"ALICANTE";"dm";"PLENOIL";"P";0;0;14449;157;"03";"10";TRUE
"03680";"AVENIDA AVENIDA DE ORIHUELA, 101";"L-D: 24H";38.336861;"ASPE";-0.777556;"N";"Aspe";NA;NA;NA;NA;NA;1.309;NA;NA;NA;1.439;NA;NA;NA;NA;"ALICANTE";"OM";"GALP";"P";0;0;14237;157;"03";"10";FALSE
"03680";"CARRETERA NOVELDA KM. 8";"L-D: 24H";38.356306;"ASPE";-0.772361;"D";"Aspe";NA;NA;NA;NA;NA;1.289;NA;NA;NA;1.419;NA;NA;NA;NA;"ALICANTE";"dm";"QFS";"P";0;0;12853;157;"03";"10";TRUE
"03450";"CALLE LES MOLINES, 35,";"L-V: 07:00-13:00";38.720111;"BANYERES DE MARIOLA";-0.671194;"N";"Banyeres de Mariola";NA;NA;NA;NA;NA;1.289;NA;1.409;NA;1.419;NA;NA;1.589;NA;"ALICANTE";"dm";"BAÑERES";"P";0;0;3663;159;"03";"10";TRUE
"03450";"CALLE PADRE JESUALDO FERRERO, 1";"L-D: 06:00-22:00";38.715917;"BANYERES DE MARIOLA";-0.664056;"N";"Banyeres de Mariola";NA;NA;NA;NA;NA;1.409;NA;1.449;NA;1.539;NA;NA;NA;NA;"ALICANTE";"dm";"REPSOL";"P";0;0;3405;159;"03";"10";FALSE
"03460";"CARRETERA VILLENA-ALCUDIA KM. 10,608";"L-D: 06:00-22:00";38.698;"BENEIXAMA";-0.771194;"D";"Beneixama";NA;NA;NA;NA;NA;1.309;0.899;NA;NA;1.449;NA;NA;1.549;NA;"ALICANTE";"dm";"GASOLINERA DIEGO";"P";0;0;10302;161;"03";"10";TRUE
"03460";"CALLE DR. SILVESTRE,";"L-D: 24H";38.701889;"BENEIXAMA";-0.76775;"N";"Beneixama";NA;NA;NA;NA;NA;1.289;0.879;NA;NA;1.429;NA;NA;NA;NA;"ALICANTE";"dm";"COOPERATIVA DIVINA AURORA";"P";0;0;1907;161;"03";"10";TRUE
"03390";"CARRETERA JACARILLA KM. S/N";"L-D: 06:00-22:00";38.076944;"BENEJUZAR";-0.843056;"I";"Benejúzar";NA;NA;NA;NA;NA;1.399;1.129;1.499;NA;1.549;NA;NA;1.589;NA;"ALICANTE";"dm";"REPSOL";"P";0;0;3574;162;"03";"10";FALSE
"03501";"CARRETERA N-332 KM. 124,5";"L-D: 06:00-22:00";38.558056;"BENIDORM";-0.101917;"I";"Benidorm";NA;NA;NA;NA;NA;1.369;NA;1.439;NA;1.549;NA;NA;1.689;NA;"ALICANTE";"OM";"GALP";"P";0;0;3430;168;"03";"10";FALSE
"03501";"AVENIDA VILLAJOYOSA LA, 34";"L-D: 24H";38.533639;"BENIDORM";-0.16225;"N";"Benidorm";NA;NA;NA;NA;NA;1.389;NA;1.459;NA;1.519;NA;NA;1.659;NA;"ALICANTE";"OM";"GALP";"P";0;0;3716;168;"03";"10";FALSE
"03501";"CARRETERA N-332 KM. 124,5";"L-D: 06:00-22:00";38.557694;"BENIDORM";-0.1015;"D";"Benidorm";NA;NA;NA;NA;NA;1.379;NA;1.449;NA;1.549;NA;NA;1.689;NA;"ALICANTE";"OM";"GALP";"P";0;0;3429;168;"03";"10";FALSE
"03501";"AVENIDA COMUNIDAD VALENCIANA, 18";"L-D: 24H";38.544194;"BENIDORM";-0.11925;"D";"Benidorm";NA;NA;NA;NA;NA;1.429;NA;1.519;NA;1.569;NA;NA;1.711;NA;"ALICANTE";"OM";"BP BENIDORM";"P";0;0;3632;168;"03";"10";TRUE
"03501";"CARRETERA CV-70 KM. 47";"L-D: 24H";38.559583;"BENIDORM";-0.134444;"I";"Benidorm";NA;NA;NA;NA;0.905;1.429;NA;1.519;NA;1.559;1.599;NA;1.699;NA;"ALICANTE";"OM";"REPSOL";"P";0;0;11766;168;"03";"10";FALSE
"03503";"AVENIDA COMUNIDAD VALENCIANA- CAMÍ DEL PALASIET, 2";"L-D: 24H";38.551139;"BENIDORM";-0.109778;"N";"Benidorm";NA;NA;NA;NA;NA;1.259;NA;NA;NA;1.399;NA;NA;NA;NA;"ALICANTE";"dm";"PETROENERGY";"P";0;0;15012;168;"03";"10";TRUE
"03503";"AVENIDA DOCTOR SEVERO OCHOA, S/N";"L-D: 07:00-23:00";38.543139;"BENIDORM";-0.102722;"N";"Benidorm";NA;NA;NA;NA;NA;1.419;NA;1.509;NA;1.559;NA;NA;1.701;NA;"ALICANTE";"dm";"BP EUROBENIDORM";"P";0;0;3598;168;"03";"10";TRUE
"03502";"AVENIDA JAIME I, 23";"L-D: 24H";38.541722;"BENIDORM";-0.134139;"N";"Benidorm";NA;NA;NA;NA;NA;1.429;NA;1.519;NA;1.569;NA;NA;1.711;NA;"ALICANTE";"OM";"BP LA ISLETA";"P";0;0;1896;168;"03";"10";TRUE
"03178";"CALLE ALCALDE FRANCISCO GONZALEZ FERNANDEZ, 32";"L-D: 24H";38.077222;"BENIJOFAR";-0.745028;"N";"Benijófar";NA;NA;NA;NA;NA;1.319;NA;NA;NA;1.459;NA;NA;NA;NA;"ALICANTE";"dm";"BENIEXPRESS";"P";0;0;14628;172;"03";"10";TRUE
"03810";"CARRETERA ALCOY A CALLOSA D'ENSARRIA S/N KM. 36";"L-S: 07:00-22:00; D: 08:30-14:30";38.698833;"BENILLOBA";-0.386472;"D";"Benilloba";NA;NA;NA;NA;NA;1.369;1.009;NA;NA;1.499;NA;NA;NA;NA;"ALICANTE";"dm";"(SIN RÓTULO)";"P";0;0;1892;173;"03";"10";TRUE
"03720";"AVINGUDA EUROPA, 34";"L-D: 24H";38.719222;"BENISSA";0.060556;"D";"Benissa";NA;NA;NA;NA;0.879;1.329;NA;NA;NA;1.459;NA;NA;NA;NA;"ALICANTE";"dm";"MASOIL BENISA";"P";0;0;13381;179;"03";"10";TRUE
"03720";"AVENIDA EUROPA, 8";"L-D: 06:00-22:00";38.718139;"BENISSA";0.060194;"D";"Benissa";NA;NA;NA;NA;NA;1.409;NA;1.499;NA;1.529;NA;NA;1.671;NA;"ALICANTE";"OM";"BP BENISSA";"P";0;0;8795;179;"03";"10";TRUE
"03720";"AVENIDA LAS MARINAS, 290";"L-D: 07:00-23:00";38.665889;"BENISSA";0.084944;"D";"Benissa";NA;NA;NA;NA;NA;1.389;NA;1.479;NA;1.529;NA;NA;1.671;NA;"ALICANTE";"dm";"BP CALA FUSTERA";"P";0;0;14633;179;"03";"10";TRUE
"03720";"JUAN DE LA CIERVA,13  POLIGONO INDUSRTIAL LAPEDRERA,";"L: 07:00-21:00";38.72675;"BENISSA";0.076583;"N";"Benissa";NA;NA;NA;NA;0.879;1.329;NA;1.449;NA;1.459;NA;NA;1.639;NA;"ALICANTE";"dm";"MEROIL";"P";0;0;3393;179;"03";"10";TRUE
"03720";"AVENIDA EUROPA, 12";"L-D: 24H";38.717667;"BENISSA";0.059861;"D";"Benissa";NA;NA;NA;NA;NA;1.299;NA;NA;NA;1.407;NA;NA;NA;NA;"ALICANTE";"dm";"PLENOIL";"P";0;0;14904;179;"03";"10";TRUE
"03720";"AVENIDA PAIS VALENCIA, 210";"L: 07:00-21:00";38.713389;"BENISSA";0.046556;"I";"Benissa";NA;NA;NA;NA;NA;1.399;NA;NA;NA;1.519;NA;NA;NA;NA;"ALICANTE";"OM";"REPSOL";"P";0;0;3526;179;"03";"10";FALSE
"03720";"CARRETERA MORAIRA-CALPE KM. 3";"L-D: 24H";38.677722;"BENISSA";0.105778;"D";"Benissa";NA;NA;NA;NA;NA;1.327;NA;NA;NA;1.455;NA;NA;NA;NA;"ALICANTE";"dm";"GASEXPRESS";"P";0;0;13780;179;"03";"10";TRUE
"03720";"CALLE MARGENADORS DELS, 8";"L-S: 08:00-20:00";38.718611;"BENISSA";0.059389;"N";"Benissa";NA;NA;NA;NA;NA;1.297;NA;NA;NA;1.407;NA;NA;NA;NA;"ALICANTE";"dm";"ROSELLO";"P";0;0;13579;179;"03";"10";TRUE
"03726";"CARRETERA CV-740 KM. 6,800";"L-D: 07:00-22:00";38.738972;"BENITACHELL";0.152139;"I";"Benitachell/Poble Nou de Benitatxell (el)";NA;NA;NA;NA;0.929;1.329;NA;NA;NA;1.448;NA;NA;1.598;NA;"ALICANTE";"dm";"(SIN RÓTULO)";"P";0;0;8349;180;"03";"10";TRUE
"03410";"CARRETERA ALCOY - VILLENA KM. 38,2";"L-V: 07:00-21:30; S: 07:00-15:30";38.630583;"BIAR";-0.786556;"I";"Biar";NA;NA;NA;NA;NA;1.419;0.965;1.469;NA;1.539;NA;NA;1.659;NA;"ALICANTE";"dm";"REPSOL";"P";0;0;3458;181;"03";"10";FALSE
"03380";"CALLE DEL PROGRESO, 24";"L-D: 24H";38.059056;"BIGASTRO";-0.884611;"D";"Bigastro";NA;NA;NA;NA;NA;1.279;NA;NA;NA;1.419;NA;NA;NA;NA;"ALICANTE";"dm";"BIGASOIL";"P";0;0;13879;182;"03";"10";TRUE
"03380";"POLIGONO APATEL, 6";"L-D: 06:00-22:00";38.059194;"BIGASTRO";-0.885222;"D";"Bigastro";NA;NA;NA;NA;NA;1.389;NA;1.489;NA;1.539;NA;NA;1.669;NA;"ALICANTE";"dm";"REPSOL";"P";0;0;3445;182;"03";"10";FALSE
"03111";"CALLE EL PI, 1";"L-D: 24H";38.477806;"BUSOT";-0.424194;"I";"Busot";NA;NA;NA;NA;NA;1.349;NA;NA;NA;1.489;NA;NA;NA;NA;"ALICANTE";"dm";"ATLANTIS EXPRESS";"P";0;0;13006;184;"03";"10";TRUE
"03360";"CARRETERA N-340 KM. 692,9";"L-V: 06:00-22:00; S: 07:00-15:00; D: 08:00-14:00";38.143139;"CALLOSA DE SEGURA";-0.927583;"D";"Callosa de Segura";NA;NA;NA;NA;NA;1.419;NA;1.509;NA;1.539;NA;NA;NA;NA;"ALICANTE";"OM";"PETRONOR";"P";0;0;3575;185;"03";"10";TRUE
"03360";"CARRETERA CV913 KM. 1";"L-D: 06:00-22:00";38.125694;"CALLOSA DE SEGURA";-0.867333;"D";"Callosa de Segura";NA;NA;NA;NA;NA;1.399;NA;1.489;NA;1.509;NA;NA;1.649;NA;"ALICANTE";"dm";"REPSOL";"P";0;0;12442;185;"03";"10";FALSE
"03360";"CARRETERA CATRAL KM. 0,300";"L-V: 06:00-22:00; S-D: 07:00-22:00";38.12775;"CALLOSA DE SEGURA";-0.861861;"D";"Callosa de Segura";NA;NA;NA;NA;NA;1.399;NA;1.489;NA;1.509;NA;NA;1.651;NA;"ALICANTE";"dm";"BP OIL ESPAÑA, S.A.U.";"P";0;0;12401;185;"03";"10";TRUE
"03510";"CALLE SAN ISIDRO, 10";"L-D: 07:00-22:00";38.6495;"CALLOSA D'EN SARRIA";-0.121194;"D";"Callosa d'En Sarrià";NA;NA;NA;NA;NA;1.429;1.037;1.509;NA;1.579;NA;NA;1.698;NA;"ALICANTE";"dm";"REPSOL";"P";0;0;3669;186;"03";"10";FALSE
"03710";"AVENIDA DIPUTACION, 35";"L-D: 24H";38.646306;"CALPE";0.04175;"D";"Calpe/Calp";NA;NA;NA;NA;NA;1.309;NA;NA;NA;1.419;NA;NA;NA;NA;"ALICANTE";"dm";"GASEXPRESS";"P";0;0;13667;187;"03";"10";TRUE
"03710";"AVINGUDA VALL DE LAGUART, 5";"L-D: 24H";38.64575;"CALPE";0.051139;"D";"Calpe/Calp";NA;NA;NA;NA;NA;1.309;NA;NA;NA;1.419;NA;NA;NA;NA;"ALICANTE";"dm";"AUTOFUEL LOW COST";"P";0;0;13958;187;"03";"10";TRUE
"03710";"PARTIDA ESTACION II, 6";"L-D: 24H";38.653028;"CALPE";0.037306;"D";"Calpe/Calp";NA;NA;NA;NA;NA;1.309;NA;1.329;NA;1.419;NA;NA;1.459;NA;"ALICANTE";"dm";"BP CALPE AUTOMOCION";"P";0;0;3639;187;"03";"10";TRUE
"03710";"PARTIDA ESTACION II, 6";"L-D: 24H";38.652972;"CALPE";0.037806;"I";"Calpe/Calp";NA;NA;NA;NA;NA;1.339;NA;1.389;NA;1.449;NA;NA;1.559;NA;"ALICANTE";"dm";"CALPE AUTOMOCION II";"P";0;0;9245;187;"03";"10";TRUE
"03710";"CALLE L ESPORT, 2";"L-D: 24H";38.645444;"CALPE";0.050278;"D";"Calpe/Calp";NA;NA;NA;NA;NA;1.394;NA;1.484;NA;1.524;NA;NA;1.666;NA;"ALICANTE";"dm";"REPSOL";"P";0;0;3512;187;"03";"10";FALSE
"03710";"AVENIDA AV DIPUTACION S/N,";"L-D: 24H";38.646306;"CALPE";0.040556;"N";"Calpe/Calp";NA;NA;NA;NA;NA;1.309;NA;1.379;NA;1.419;NA;NA;1.459;NA;"ALICANTE";"dm";"Q8";"P";0;0;1960;187;"03";"10";TRUE
"03710";"AVENIDA VALL DE L'AGUART, 11";"L-D: 07:00-22:00";38.645694;"CALPE";0.052306;"N";"Calpe/Calp";NA;NA;NA;NA;NA;1.352;NA;NA;NA;1.503;NA;NA;1.658;NA;"ALICANTE";"dm";"DRZ";"P";0;0;1906;187;"03";"10";TRUE
"03560";"C/ SAN RAMON, 109";"L-D: 24H";38.430639;"CAMPELLO (EL)";-0.399389;"I";"Campello (el)";NA;NA;NA;NA;NA;1.369;NA;1.429;NA;1.509;NA;NA;1.639;NA;"ALICANTE";"dm";"SHELL";"P";0;0;9651;188;"03";"10";FALSE
"03560";"CALLE SAN BARTOLOME, 33";"L-D: 06:00-22:00";38.418806;"CAMPELLO (EL)";-0.393167;"N";"Campello (el)";NA;NA;NA;NA;NA;1.349;NA;1.429;NA;1.489;NA;NA;1.619;NA;"ALICANTE";"dm";"GALP";"P";0;0;1941;188;"03";"10";FALSE
"03560";"CALLE INFANTA, 31";"L-J: 06:00-22:00; V: 06:00-23:00; S-D: 07:00-23:00";38.424083;"CAMPELLO (EL)";-0.401389;"N";"Campello (el)";NA;NA;NA;NA;NA;1.369;NA;1.419;NA;1.509;1.589;NA;NA;NA;"ALICANTE";"dm";"CAMPELLO - GOTETA II";"P";0;0;3665;188;"03";"10";TRUE
"03560";"CALLE SAN RAMON 8,";"L-D: 06:30-22:00";38.424639;"CAMPELLO (EL)";-0.406444;"D";"Campello (el)";NA;NA;NA;NA;NA;1.369;NA;1.419;NA;1.519;NA;NA;NA;NA;"ALICANTE";"dm";"REPSOL-RIO SECO";"P";0;0;3570;188;"03";"10";TRUE
"03560";"CARRETERA N-332 KM. 122";"L: 06:00-22:00";38.450167;"CAMPELLO (EL)";-0.373611;"D";"Campello (el)";NA;NA;NA;NA;NA;1.369;NA;1.419;NA;1.509;NA;NA;1.639;NA;"ALICANTE";"OM";"PETRONOR";"P";0;0;3567;188;"03";"10";TRUE
"03560";"CARRETERA N-332 KM. 122,5";"L-V: 07:00-21:00; S-D: 08:00-21:00";38.450278;"CAMPELLO (EL)";-0.374361;"I";"Campello (el)";NA;NA;NA;NA;0.869;1.369;NA;1.419;NA;1.509;NA;NA;1.639;NA;"ALICANTE";"OM";"REPSOL";"P";0;0;3568;188;"03";"10";FALSE
"03560";"CALLE SAN RAMON, 125";"L-D: 24H";38.4325;"CAMPELLO (EL)";-0.397194;"D";"Campello (el)";NA;NA;NA;NA;NA;1.279;NA;NA;NA;1.409;NA;NA;NA;NA;"ALICANTE";"dm";"GASEXPRESS CAMPELLO";"P";0;0;14520;188;"03";"10";TRUE
"03409";"CALLE BIAR, 1";"L-D: 24H";38.675278;"CAÑADA";-0.804917;"D";"Cañada";NA;NA;NA;NA;NA;1.309;0.861;NA;NA;NA;NA;NA;NA;NA;"ALICANTE";"dm";"COOPERATIVA SAN CRISTOBAL";"R";0;0;12171;190;"03";"10";TRUE
"03420";"AVENIDA DE IBI, 46";"L-D: 06:00-22:00";38.600944;"CASTALLA";-0.669611;"D";"Castalla";NA;NA;NA;NA;NA;1.415;NA;1.465;NA;1.569;NA;NA;1.679;NA;"ALICANTE";"OM";"REPSOL";"P";0;0;3675;191;"03";"10";FALSE
"03420";"CARRETERA CASTALLA ALICANTE, CV 815 KM. 5,7";"L-D: 06:00-22:00";38.57825;"CASTALLA";-0.654917;"N";"Castalla";NA;NA;NA;NA;NA;1.399;0.969;1.459;NA;1.559;1.609;NA;1.679;NA;"ALICANTE";"dm";"REPSOL";"P";0;0;11545;191;"03";"10";FALSE
"03420";"CALLE SAN VICENTE DEL RASPEIG, 4";"L-D: 24H";38.596361;"CASTALLA";-0.663889;"D";"Castalla";NA;NA;NA;NA;NA;1.339;NA;NA;NA;1.479;NA;NA;NA;NA;"ALICANTE";"dm";"MASOIL CASTALLA";"P";0;0;14136;191;"03";"10";TRUE
"03158";"CARRETERA CATRAL- CALLOSA DEL SEGURA KM. 5,3";"L-D: 24H";38.148111;"CATRAL";-0.828444;"I";"Catral";NA;NA;NA;NA;NA;1.279;NA;NA;NA;1.399;NA;NA;NA;NA;"ALICANTE";"dm";"GASEXPRESS";"P";0;0;10306;194;"03";"10";TRUE
"03158";"PURISIMA, 80";"L-D: 06:00-22:00";38.167583;"CATRAL";-0.803306;"I";"Catral";NA;NA;NA;NA;NA;1.379;0.969;1.439;NA;1.499;NA;NA;1.599;NA;"ALICANTE";"dm";"BRIOGAS";"P";0;0;1914;194;"03";"10";TRUE
"03820";"AVENIDA ALICANTE, 49";"L-D: 06:00-22:00";38.717889;"COCENTAINA";-0.45775;"D";"Cocentaina";NA;NA;NA;NA;NA;1.389;NA;1.479;NA;1.519;NA;NA;1.649;NA;"ALICANTE";"OM";"REPSOL";"P";0;0;3476;195;"03";"10";FALSE
"03820";"CL AVENIDA PAIS VALENCIA, 117";"L-D: 06:00-22:00";38.738722;"COCENTAINA";-0.439694;"D";"Cocentaina";NA;NA;NA;NA;NA;1.389;NA;1.479;NA;1.509;NA;NA;1.639;NA;"ALICANTE";"OM";"REPSOL";"P";0;0;3647;195;"03";"10";FALSE
"03820";"AVENIDA DE ALICANTE, 87";"L-D: 06:00-22:00";38.715472;"COCENTAINA";-0.463639;"I";"Cocentaina";NA;NA;NA;NA;NA;1.369;NA;1.439;NA;1.509;NA;NA;1.649;NA;"ALICANTE";"OM";"GALP";"P";0;0;3715;195;"03";"10";FALSE
"03820";"AVENIDA ALTET L', 3";"L-D: 24H";38.733333;"COCENTAINA";-0.441806;"D";"Cocentaina";NA;NA;NA;NA;0.609;1.349;NA;NA;NA;1.449;NA;NA;NA;NA;"ALICANTE";"dm";"SHELL";"P";0;0;13901;195;"03";"10";FALSE
"03820";"AVENIDA ALACANT, 64";"L-D: 24H";38.717972;"COCENTAINA";-0.458722;"D";"Cocentaina";NA;NA;NA;NA;NA;1.279;NA;NA;NA;1.407;NA;NA;NA;NA;"ALICANTE";"dm";"LA 23";"P";0;0;15089;195;"03";"10";TRUE
"03820";"AVENIDA AVDA. L'ALTET Nº 2, 2";"L-D: 24H";38.730639;"COCENTAINA";-0.443278;"N";"Cocentaina";NA;NA;NA;NA;NA;1.359;NA;1.389;NA;1.489;NA;NA;1.669;NA;"ALICANTE";"dm";"CARREFOUR";"P";0;0;11117;195;"03";"10";TRUE
"03820";"AVENIDA AVENIDA DE ALICANTE, 104";"L-D: 24H";38.715167;"COCENTAINA";-0.463167;"D";"Cocentaina";NA;NA;NA;NA;NA;1.319;NA;NA;NA;NA;NA;NA;NA;NA;"ALICANTE";"OM";"GALP";"P";0;0;3714;195;"03";"10";FALSE
"03350";"PARAJE DE SAN ISIDRO, S/Nº";"L-S: 05:00-22:00; D: 07:00-22:00";38.141528;"COX";-0.899639;"N";"Cox";NA;NA;NA;NA;NA;1.369;NA;NA;NA;1.469;NA;NA;NA;NA;"ALICANTE";"dm";"PEPE RAMON";"P";0;0;10090;197;"03";"10";TRUE
"03350";"AVENIDA DEL CARMEN, 94";"L-D: 06:00-22:00";38.147139;"COX";-0.889278;"I";"Cox";NA;NA;NA;NA;NA;1.409;NA;1.499;NA;1.519;NA;NA;1.659;NA;"ALICANTE";"OM";"REPSOL";"P";0;0;3577;197;"03";"10";FALSE
"03350";"PASEO PRINCIPE DE ASTURIAS, S/N";"L-D: 06:00-22:00";38.143889;"COX";-0.898861;"N";"Cox";NA;NA;NA;NA;NA;1.399;NA;1.491;NA;1.519;NA;NA;1.661;NA;"ALICANTE";"dm";"BP COX";"P";0;0;3711;197;"03";"10";TRUE
"03330";"CR CV-875 ,P.K. 10,5";"L-D: 24H";38.233111;"CREVILLENT";-0.791083;"I";"Crevillent";NA;NA;NA;NA;0.899;1.429;NA;1.509;NA;1.539;1.579;NA;1.669;NA;"ALICANTE";"OM";"REPSOL";"P";0;0;3478;198;"03";"10";FALSE
"03330";"CARRETERA NACIONAL 340 KM. 707,1";"L-D: 07:00-22:00";38.227222;"CREVILLENT";-0.822528;"D";"Crevillent";NA;NA;NA;NA;NA;1.429;1.075;1.499;NA;1.529;NA;NA;1.659;NA;"ALICANTE";"OM";"REPSOL";"P";0;0;3668;198;"03";"10";FALSE
"03330";"AUTOVIA A-37 KM. 728,2";"L-D: 00:00-23:59";38.193028;"CREVILLENT";-0.812639;"D";"Crevillent";NA;NA;NA;NA;NA;1.409;NA;1.479;NA;1.519;NA;NA;1.659;NA;"ALICANTE";"OM";"REPSOL";"P";0;0;3700;198;"03";"10";FALSE
"03330";"AUTOVIA A-37 KM. 728";"L-D: 24H";38.196472;"CREVILLENT";-0.812333;"I";"Crevillent";NA;NA;NA;NA;0.899;1.419;NA;1.489;NA;1.529;NA;NA;1.669;NA;"ALICANTE";"OM";"REPSOL";"P";0;0;3701;198;"03";"10";FALSE
"03330";"POLIGONO I PARCELA 10, S/N";"L-V: 06:00-22:00; S-D: 07:00-22:00";38.244333;"CREVILLENT";-0.797861;"N";"Crevillent";NA;NA;NA;NA;NA;1.419;NA;1.509;NA;1.519;NA;NA;1.661;NA;"ALICANTE";"dm";"BP  POLIGONO CREVILLENTE";"P";0;0;10728;198;"03";"10";TRUE
"03330";"P. DE ELCHE, Nº 29-31";"L-D: 24H";38.248694;"CREVILLENT";-0.797861;"D";"Crevillent";NA;NA;NA;NA;NA;1.379;NA;1.449;NA;1.489;NA;NA;1.629;NA;"ALICANTE";"dm";"MOSCARDÓ";"P";0;0;8346;198;"03";"10";TRUE
"03330";"P. DE ELCHE, Nº 29-31";"L-V: 06:00-22:00; S: 06:00-14:00";38.249167;"CREVILLENT";-0.798056;"I";"Crevillent";NA;NA;NA;NA;NA;1.379;0.99;1.449;NA;1.489;NA;NA;1.629;NA;"ALICANTE";"dm";"MOSCARDÓ";"P";0;0;8347;198;"03";"10";TRUE
"03330";"POLIGONO I7, SN";"L-S: 06:00-22:00";38.250861;"CREVILLENT";-0.782583;"N";"Crevillent";NA;NA;NA;NA;NA;1.389;NA;1.459;NA;1.499;NA;NA;1.639;NA;"ALICANTE";"dm";"BP";"P";0;0;10313;198;"03";"10";FALSE
"03330";"CR N-340, 707,0";"L-D: 24H";38.231556;"CREVILLENT";-0.81975;"I";"Crevillent";NA;NA;NA;NA;NA;NA;NA;1.328;NA;1.455;NA;NA;NA;NA;"ALICANTE";"dm";"H.S";"P";0;0;3686;198;"03";"10";TRUE
"03330";"AUTOVIA A7 KM. 526";"L-D: 24H";38.233167;"CREVILLENT";-0.791;"D";"Crevillent";NA;NA;2.23;2.2;NA;NA;NA;NA;NA;NA;NA;NA;NA;NA;"ALICANTE";"dm";"HAM";"P";0;0;14864;198;"03";"10";TRUE
"03330";"PASEO DE ELCHE, 7";"L-D: 24H";38.248111;"SAN FELIPE NERI";-0.801139;"D";"Crevillent";NA;NA;NA;NA;NA;1.277;NA;NA;NA;1.387;NA;NA;NA;NA;"ALICANTE";"dm";"PLENOIL";"P";0;0;15041;198;"03";"10";TRUE
"03700";"CAMINO SANTA LLÚCIA, 1";"L-D: 24H";38.834083;"DENIA";0.113222;"N";"Dénia";NA;NA;NA;NA;NA;1.379;NA;NA;NA;1.529;NA;NA;NA;NA;"ALICANTE";"OM";"SHELL";"P";0;0;13558;201;"03";"10";FALSE
"03700";"PARTIDA MADRIGUERES SUD, 25";"L-D: 24H";38.837306;"DENIA";0.084556;"D";"Dénia";NA;NA;NA;NA;NA;1.348;NA;NA;NA;1.488;NA;NA;NA;NA;"ALICANTE";"dm";"TECKMAR";"P";0;0;13231;201;"03";"10";TRUE
"03700";"CTRA. LAS MARINAS km 0,85";"L-D: 07:00-20:00";38.848333;"DENIA";0.099722;"D";"Dénia";NA;NA;NA;NA;NA;1.379;NA;1.469;NA;1.519;NA;NA;1.679;NA;"ALICANTE";"dm";"MOSCARDÓ";"P";0;0;8348;201;"03";"10";TRUE
"03700";"AVENIDA MONTGO, 34";"L-D: 06:00-23:00";38.832667;"DENIA";0.102111;"N";"Dénia";NA;NA;NA;NA;NA;1.399;NA;1.509;NA;1.549;NA;NA;1.719;NA;"ALICANTE";"dm";"BP";"P";0;0;13036;201;"03";"10";FALSE
"03700";"PARTIDA PARTIDA MADRIGUERES SUD, 5 - PARKING HIPERMERCADO CARREFOUR DENIA,";"L-S: 07:00-22:00; D: 08:00-22:00";38.836917;"DENIA";0.095056;"N";"Dénia";NA;NA;NA;NA;NA;1.389;NA;1.459;NA;1.529;NA;NA;1.699;NA;"ALICANTE";"dm";"Q8";"P";0;0;1957;201;"03";"10";TRUE
"03700";"CALLE AVENIDA VALENCIA, 44";"L-D: 24H";38.839583;"DENIA";0.098194;"D";"Dénia";NA;NA;NA;NA;NA;1.419;NA;1.509;NA;1.559;NA;NA;1.709;NA;"ALICANTE";"OM";"REPSOL";"P";0;0;3541;201;"03";"10";FALSE
"03700";"PARTIDA MADRIGUERES SUD, 61";"L-D: 24H";38.835694;"DENIA";0.09375;"D";"Dénia";NA;NA;NA;NA;NA;1.385;NA;NA;NA;1.529;NA;NA;NA;NA;"ALICANTE";"dm";"REPSOL COMERCIAL";"P";0;0;12469;201;"03";"10";TRUE
"03700";"CARRETERA DENIA A ONDARA C-3311 KM. 0,5";"L-D: 06:00-22:00";38.839;"DENIA";0.094417;"N";"Dénia";NA;NA;NA;NA;NA;NA;NA;NA;NA;NA;1.569;NA;1.709;NA;"ALICANTE";"OM";"GALP";"P";0;0;3725;201;"03";"10";FALSE
"03150";"CARRETERA CV905 KM. 0,800";"L-D: 06:00-22:00";38.131278;"DOLORES";-0.775194;"I";"Dolores";NA;NA;NA;NA;NA;1.349;0.949;1.399;NA;1.469;NA;NA;1.559;NA;"ALICANTE";"dm";"MAYAYO";"P";0;0;1895;202;"03";"10";TRUE
"03150";"CARRETERA AP-3061 KM. 15,5";"L-V: 07:00-20:00";38.140889;"DOLORES";-0.748556;"D";"Dolores";NA;NA;NA;NA;NA;1.389;0.965;1.455;NA;1.518;NA;NA;1.65;NA;"ALICANTE";"OM";"CEPSA";"P";0;0;3438;202;"03";"10";FALSE
"03150";"CALLE MAESTRO SERRANO, 1";"L-V: 07:00-21:00; S: 08:00-21:00; D: 08:00-20:00";38.139722;"DOLORES";-0.774889;"D";"Dolores";NA;NA;NA;NA;NA;1.379;NA;1.479;NA;1.519;NA;NA;1.659;NA;"ALICANTE";"dm";"REPSOL";"P";0;0;3518;202;"03";"10";FALSE
"03202";"AVENIDA ALCALDE VICENTE QUILES, 4";"L-D: 06:00-23:00";38.2725;"ELCHE/ELX";-0.690833;"D";"Elche/Elx";NA;NA;NA;NA;NA;1.303;NA;1.39;NA;1.426;NA;NA;1.564;NA;"ALICANTE";"dm";"LA ESTACION";"P";0;0;1880;203;"03";"10";TRUE
"03202";"CL AVENIDA DE ALICANTE, 72";"L-V: 06:00-22:00; S-D: 07:00-22:00";38.269472;"ELCHE/ELX";-0.682194;"D";"Elche/Elx";NA;NA;NA;NA;NA;1.409;NA;1.499;NA;1.529;1.569;NA;1.659;NA;"ALICANTE";"OM";"REPSOL";"P";0;0;3621;203;"03";"10";FALSE
"03203";"CALLE MIGUEL SERVET, 9";"L-V: 06:30-22:00; S: 07:00-15:00";38.297111;"ELCHE/ELX";-0.615389;"N";"Elche/Elx";NA;NA;NA;NA;NA;1.399;NA;1.469;NA;1.529;NA;NA;1.659;NA;"ALICANTE";"dm";"NUEVA MULTI LC";"P";0;0;10312;203;"03";"10";TRUE
"03203";"CALLE SANTIAGO RAMON Y CAJAL, 35";"L-V: 06:00-22:00; S: 07:00-14:00";38.296528;"ELCHE/ELX";-0.614861;"D";"Elche/Elx";NA;NA;NA;NA;NA;1.381;NA;1.471;NA;1.501;NA;NA;1.638;NA;"ALICANTE";"dm";"CONFORT AUTO";"P";0;0;11715;203;"03";"10";TRUE
"03203";"CALLE MIGUEL SERVET, 4";"L-V: 06:30-22:30; S: 06:30-20:30; D: 08:00-16:00";38.298056;"ELCHE/ELX";-0.614472;"N";"Elche/Elx";NA;NA;NA;NA;NA;1.379;NA;1.469;NA;1.499;NA;NA;1.599;NA;"ALICANTE";"dm";"SHELL";"P";0;0;8306;203;"03";"10";FALSE
"03203";"CALLE MALLORCA, 12";"L-J: 06:30-23:00; V: 06:30-23:59; S: 07:00-23:59; D: 07:00-23:00";38.269944;"ELCHE/ELX";-0.67075;"N";"Elche/Elx";NA;NA;NA;NA;NA;1.389;NA;1.479;NA;1.509;NA;NA;1.649;NA;"ALICANTE";"dm";"E.S. EL POLIGONO";"P";0;0;3562;203;"03";"10";TRUE
"03203";"CALLE GALILEO GALILEI, 14";"L: 24H";38.288139;"ELCHE/ELX";-0.611667;"D";"Elche/Elx";NA;NA;NA;NA;NA;1.239;NA;NA;NA;1.379;NA;NA;NA;NA;"ALICANTE";"dm";"GM OIL ELCHE";"P";0;0;15095;203;"03";"10";TRUE
"03203";"CALLE ALICANTE-ALTET, 122";"L-D: 24H";38.271583;"ELCHE/ELX";-0.673944;"D";"Elche/Elx";NA;NA;NA;NA;NA;1.287;NA;NA;NA;1.399;NA;NA;NA;NA;"ALICANTE";"dm";"PLENOIL";"P";0;0;14714;203;"03";"10";TRUE
"03291";"CALLE ALMANSA, 62";"L-J: 06:00-23:00; V-S: 06:00-23:59; D: 06:30-23:00";38.278972;"ELCHE/ELX";-0.719639;"N";"Elche/Elx";NA;NA;NA;NA;NA;1.409;NA;1.499;NA;1.529;NA;NA;1.659;NA;"ALICANTE";"dm";"MORA";"P";0;0;3726;203;"03";"10";TRUE
"03291";"PARTIDA ALTABIX POLIGONO 3   (CAMINO DE CASTILLA), 37";"L-D: 06:30-22:00";38.29325;"ELCHE/ELX";-0.675417;"D";"Elche/Elx";NA;NA;NA;NA;NA;1.399;NA;1.399;NA;1.509;NA;NA;1.639;NA;"ALICANTE";"dm";"ABIERTO (SERVICIO ATENDIDO)";"P";0;0;1882;203;"03";"10";TRUE
"03291";"PARTIDA ALTABIX.POL. 1 NO 203 (AV DEL BIMILENARIO S/N)";"L-D: 24H";38.283139;"ELCHE/ELX";-0.684083;"N";"Elche/Elx";NA;NA;NA;NA;NA;1.407;NA;1.491;NA;1.515;NA;NA;1.655;NA;"ALICANTE";"dm";"BP LA GALIA";"P";0;0;3615;203;"03";"10";TRUE
"03205";"CALLE ECUADOR, 12";"L-D: 07:00-23:00";38.264139;"ELCHE/ELX";-0.72375;"D";"Elche/Elx";NA;NA;NA;NA;NA;1.407;NA;1.491;NA;1.515;NA;NA;1.655;NA;"ALICANTE";"dm";"BP ALJUB";"P";0;0;12276;203;"03";"10";TRUE
"03205";"AVINGUDA DE CREVILLENTE, 4";"L-V: 07:00-22:00; S: 08:00-22:00; D: 08:00-14:00";38.261444;"ELCHE/ELX";-0.717444;"N";"Elche/Elx";NA;NA;NA;NA;NA;1.285;NA;1.285;NA;1.415;NA;NA;NA;NA;"ALICANTE";"dm";"GASOLINERA D'ELX (S. ATENDIDO)";"P";0;0;13870;203;"03";"10";TRUE
"03205";"CARRETERA ALICANTE - MURCIA KM. 53";"L-D: 24H";38.258583;"ELCHE/ELX";-0.73025;"N";"Elche/Elx";NA;NA;NA;NA;NA;1.399;NA;1.429;NA;1.509;NA;NA;1.689;NA;"ALICANTE";"dm";"CARREFOUR";"P";0;0;11118;203;"03";"10";TRUE
"03205";"CARRETERA N-340A KM. 716,3";"L-D: 24H";38.258694;"ELCHE/ELX";-0.734333;"I";"Elche/Elx";NA;NA;NA;NA;NA;1.319;NA;NA;NA;1.409;NA;NA;NA;NA;"ALICANTE";"OM";"CEPSA";"P";0;0;3709;203;"03";"10";FALSE
"03205";"CALLE PANAMA, 5";"L-D: 24H";38.261528;"ELCHE/ELX";-0.718056;"D";"Elche/Elx";NA;NA;NA;NA;NA;1.269;NA;NA;NA;1.399;NA;NA;NA;NA;"ALICANTE";"dm";"E.S. PLUSOIL";"P";0;0;13648;203;"03";"10";TRUE
"03205";"Avda. de la Libertad - Salida N-340 (Crevillente)";"L-D: 06:00-22:00";38.260389;"ELCHE/ELX";-0.71825;"N";"Elche/Elx";NA;NA;NA;NA;NA;1.409;NA;1.449;NA;1.519;NA;NA;1.659;NA;"ALICANTE";"OM";"GALP";"P";0;0;3748;203;"03";"10";FALSE
"03205";"CALLE ECUADOR, 8";"L-D: 24H";38.263583;"ELCHE/ELX";-0.7235;"D";"Elche/Elx";NA;NA;NA;NA;NA;1.315;NA;NA;NA;1.405;NA;NA;NA;NA;"ALICANTE";"dm";"EL CANARI";"P";0;0;13600;203;"03";"10";TRUE
"03290";"CARRETERA CV-8500 KM. 3,6";"L-J: 00:00-02:00 y 06:00-23:59; V-S: 00:00-23:59; D: 00:00-02:00 y 06:00-23:59";38.251028;"ELCHE/ELX";-0.698306;"I";"Elche/Elx";NA;NA;NA;NA;0.899;1.429;NA;1.499;NA;1.549;1.599;NA;1.679;NA;"ALICANTE";"OM";"REPSOL";"P";0;0;3685;203;"03";"10";FALSE
"03290";"CAMINO CAMINO VIEJO ELCHE/SANTA-POLA KM 0,200, 72";"L-D: 06:00-22:00";38.257917;"ELCHE/ELX";-0.678278;"I";"Elche/Elx";NA;NA;NA;NA;NA;1.419;NA;1.489;NA;1.539;NA;NA;1.669;NA;"ALICANTE";"dm";"REPSOL";"P";0;0;3691;203;"03";"10";FALSE
"03206";"AV DE NOVELDA, 128";"L-D: 06:00-22:00";38.278306;"ELCHE/ELX";-0.716694;"I";"Elche/Elx";NA;NA;NA;NA;NA;1.429;NA;1.519;NA;1.549;NA;NA;1.669;NA;"ALICANTE";"OM";"REPSOL";"P";0;0;3555;203;"03";"10";FALSE
"03206";"CALLE PETRER, 7";"L-V: 07:00-22:00; S: 08:00-19:00; D: 08:00-14:00";38.277806;"ELCHE/ELX";-0.718417;"N";"Elche/Elx";NA;NA;NA;NA;NA;1.285;NA;1.285;NA;1.415;NA;NA;1.525;NA;"ALICANTE";"dm";"GASOLINERA D'ELX (S. ATENDIDO)";"P";0;0;12301;203;"03";"10";TRUE
"03206";"AVENIDA NOVELDA, 188";"L-V: 06:00-22:00; S-D: 07:00-15:00";38.282778;"ELCHE/ELX";-0.721944;"D";"Elche/Elx";NA;NA;NA;NA;NA;1.409;NA;1.499;NA;1.529;NA;NA;1.659;NA;"ALICANTE";"dm";"MORA";"P";0;0;9392;203;"03";"10";TRUE
"03206";"CALLE SENIJA, 2";"L-D: 24H";38.282583;"ELCHE/ELX";-0.712472;"D";"Elche/Elx";NA;NA;NA;NA;NA;1.259;NA;NA;NA;1.409;NA;NA;NA;NA;"ALICANTE";"dm";"BALLENOIL";"P";0;0;14469;203;"03";"10";TRUE
"03206";"RONDA VALL D'UIXO, 52";"L-D: 24H";38.283917;"ELCHE/ELX";-0.714278;"D";"Elche/Elx";NA;NA;NA;NA;NA;1.249;NA;NA;NA;1.399;NA;NA;NA;NA;"ALICANTE";"dm";"PETROPRIX";"P";0;0;13586;203;"03";"10";TRUE
"03206";"CALLE ALMANSA, 19";"L-D: 24H";38.281083;"ELCHE/ELX";-0.713389;"D";"Elche/Elx";NA;NA;NA;NA;NA;1.249;NA;NA;NA;1.399;NA;NA;NA;NA;"ALICANTE";"dm";"PLENOIL";"P";0;0;14094;203;"03";"10";TRUE
"03204";"AVENIDA ANTONIO MACHADO, 51";"L-J: 06:30-23:00; V: 06:30-23:59; S: 07:00-23:59; D: 07:00-23:00";38.261861;"ELCHE/ELX";-0.708806;"N";"Elche/Elx";NA;NA;NA;NA;NA;1.389;NA;1.469;NA;1.519;NA;NA;1.659;NA;"ALICANTE";"dm";"MORA";"P";0;0;3742;203;"03";"10";TRUE
"03204";"C/ SOR JOSEFA ALCORTA 71 (ESQ.CTRA.CIRCUNVALACIÓN";"L-D: 06:00-00:00";38.2525;"ELCHE/ELX";-0.703056;"N";"Elche/Elx";NA;NA;NA;NA;NA;1.399;NA;1.479;NA;1.539;NA;NA;1.679;NA;"ALICANTE";"OM";"SHELL";"P";0;0;1935;203;"03";"10";FALSE
"03320";"Autovía del Mediterráneo (A-7) a Murcia";"L-D: 24H";38.309528;"TORRELLANO";-0.605694;"I";"Elche/Elx";NA;NA;NA;NA;NA;1.429;NA;1.499;NA;1.539;NA;NA;1.659;NA;"ALICANTE";"OM";"GALP";"P";0;0;8305;203;"03";"10";FALSE
"03320";"AVENIDA ILLICE, 22";"L-D: 24H";38.29175;"TORRELLANO";-0.592472;"N";"Elche/Elx";NA;NA;NA;NA;NA;1.395;1.019;1.465;NA;1.519;1.569;NA;NA;NA;"ALICANTE";"dm";"PETRONOR";"P";0;0;9649;203;"03";"10";TRUE
"03320";"CARRETERA N-340, KM727 KM. 727";"L-V: 06:00-22:00; S: 08:00-14:00";38.286861;"TORRELLANO";-0.614667;"D";"Elche/Elx";NA;NA;NA;NA;NA;1.399;NA;1.479;NA;1.529;NA;NA;1.669;NA;"ALICANTE";"OM";"REPSOL";"P";0;0;3539;203;"03";"10";FALSE
"03320";"Autovía del Mediterráneo (A-7) a Valencia";"L-D: 24H";38.307972;"TORRELLANO";-0.60625;"D";"Elche/Elx";NA;NA;NA;NA;NA;1.429;NA;1.499;NA;1.539;NA;NA;1.659;NA;"ALICANTE";"OM";"GALP";"P";0;0;8304;203;"03";"10";FALSE
"03195";"AVENIDA AEROPUERTO DEL TORRELLANO, 125";"L: 24H";38.287472;"ALTET (EL)";-0.563472;"N";"Elche/Elx";NA;NA;NA;NA;NA;1.409;1.019;NA;NA;NA;NA;NA;NA;NA;"ALICANTE";"dm";"PETROALACANT";"P";0;0;12652;203;"03";"10";TRUE
"03195";"CARRETERA ELCHE-ALTET KM. 10,1";"L-D: 06:00-23:00";38.278861;"ALTET (EL)";-0.562944;"D";"Elche/Elx";NA;NA;NA;NA;NA;1.389;NA;1.459;NA;1.499;NA;NA;1.649;NA;"ALICANTE";"dm";"FTH";"P";0;0;3483;203;"03";"10";TRUE
"03195";"AVENIDA CARTAGENA DE, 59";"L-D: 24H";38.276;"ALTET (EL)";-0.538778;"N";"Elche/Elx";NA;NA;NA;NA;NA;1.419;NA;1.509;NA;1.559;NA;NA;1.699;NA;"ALICANTE";"dm";"REPSOL";"P";0;0;3552;203;"03";"10";FALSE
"03295";"CARRETERA CV-865 KM. 3,6";"L-D: 06:00-22:00";38.244861;"PERLETA (LA)";-0.644583;"I";"Elche/Elx";NA;NA;NA;NA;NA;1.389;NA;1.479;NA;1.519;NA;NA;1.659;NA;"ALICANTE";"dm";"REPSOL";"P";0;0;3571;203;"03";"10";FALSE
"03194";"PARTIDA LA MARINA, 307";"L-D: 07:00-23:00";38.143611;"ELCHE/ELX";-0.664417;"I";"Elche/Elx";NA;NA;NA;NA;NA;1.379;NA;1.469;NA;1.519;NA;NA;1.669;NA;"ALICANTE";"dm";"MARINA DE LA PLANA";"P";0;0;10503;203;"03";"10";TRUE
"03296";"CARRETERA CV-875 KM. 6,2";"L-S: 07:00-22:00; D: 08:00-15:00";38.216611;"ALGODA-MATOLA";-0.761417;"D";"Elche/Elx";NA;NA;NA;NA;NA;1.399;0.969;1.465;NA;1.519;NA;NA;NA;NA;"ALICANTE";"dm";"CEPSA";"P";0;0;11840;203;"03";"10";FALSE
"03207";"CALLE ALGORFA, 2";"L-D: 06:00-23:00";38.273778;"ELCHE/ELX";-0.665417;"D";"Elche/Elx";NA;NA;NA;NA;NA;1.411;NA;1.495;NA;1.519;NA;NA;1.659;NA;"ALICANTE";"dm";"BP SAN ANTON";"P";0;0;12581;203;"03";"10";TRUE
"03294";"CARRETERA CARRETERA ELCHE  LA MARINA KM. 6,7";"L: 06:00-23:00";38.196;"HOYA (LA)";-0.678611;"I";"Elche/Elx";NA;NA;NA;NA;NA;1.409;1.039;1.479;NA;1.519;NA;NA;1.649;NA;"ALICANTE";"dm";"REPSOL";"P";0;0;3560;203;"03";"10";FALSE
"03293";"CARRETERA N-340 KM. 714,1";"L-S: 06:00-22:00; D: 08:00-18:00";38.256778;"ELCHE/ELX";-0.74775;"I";"Elche/Elx";NA;NA;NA;NA;NA;1.429;NA;1.499;NA;1.539;NA;NA;1.679;NA;"ALICANTE";"OM";"REPSOL";"P";0;0;3661;203;"03";"10";FALSE
"03293";"CARRETERA DOLORES DE KM. 8,3";"L-V: 07:00-21:00; S-D: 07:00-20:00";38.177111;"ELCHE/ELX";-0.702111;"D";"Elche/Elx";NA;NA;NA;NA;NA;1.409;1.073;1.499;NA;1.519;NA;NA;NA;NA;"ALICANTE";"OM";"REPSOL";"P";0;0;3602;203;"03";"10";FALSE
"03600";"CALLE ROMERO,2 - AVDA. LIBERTAD, S/N";"L-D: 06:00-22:00";38.491972;"ELDA";-0.795194;"N";"Elda";NA;NA;NA;NA;NA;1.39;NA;1.456;NA;1.524;1.584;NA;NA;NA;"ALICANTE";"dm";"CEPSA";"P";0;0;3641;204;"03";"10";FALSE
"03600";"AVENIDA MEDITERRANEO, S/N";"L-D: 06:00-22:00";38.460056;"ELDA";-0.782528;"N";"Elda";NA;NA;NA;NA;0.869;1.33;NA;1.396;NA;1.464;NA;NA;1.596;NA;"ALICANTE";"dm";"CEPSA";"P";0;0;3408;204;"03";"10";FALSE
"03600";"CALLE CONDES DE ELDA, SN";"L-D: 06:00-22:00";38.484944;"ELDA";-0.810639;"D";"Elda";NA;NA;NA;NA;NA;1.299;NA;1.379;NA;1.409;NA;NA;1.529;NA;"ALICANTE";"dm";"REPOSTANDO";"P";0;0;11984;204;"03";"10";TRUE
"03600";"AVENIDA MEDITERRANEO, 16";"L-D: 24H";38.467333;"ELDA";-0.78775;"N";"Elda";NA;NA;NA;NA;NA;1.339;NA;1.419;NA;1.474;NA;NA;1.614;NA;"ALICANTE";"OM";"SHELL";"P";0;0;9117;204;"03";"10";FALSE
"03600";"CALLE MEDICO FEDERICO MARTINEZ PEREZ, 1";"L-D: 24H";38.464944;"ELDA";-0.785361;"D";"Elda";NA;NA;NA;NA;NA;1.299;NA;NA;NA;1.409;NA;NA;NA;NA;"ALICANTE";"dm";"GASEXPRESS";"P";0;0;13445;204;"03";"10";TRUE
"03600";"POLIGONO CL ITALIA, ESQUINA CL IRLANDA PARC., 32";"L-D: 24H";38.461722;"ELDA";-0.816472;"N";"Elda";NA;NA;NA;NA;NA;1.299;NA;NA;NA;1.419;NA;NA;NA;NA;"ALICANTE";"dm";"BDMED ELDA";"P";0;0;10299;204;"03";"10";TRUE
"03600";"CARRETERA CTRA.ELDA-MONOVAR KM 13 KM. 13";"L-D: 06:00-22:00";38.450306;"ELDA";-0.812833;"N";"Elda";NA;NA;NA;NA;NA;1.299;NA;NA;NA;1.459;NA;NA;NA;NA;"ALICANTE";"dm";"V2 GASOLINERAS";"P";0;0;3719;204;"03";"10";TRUE
"03600";"CARRETERA C-3213 KM. 15,700";"L-D: 06:00-22:00";38.473944;"ELDA";-0.80475;"I";"Elda";NA;NA;NA;NA;NA;1.409;NA;1.459;NA;1.519;NA;NA;1.629;NA;"ALICANTE";"OM";"REPSOL";"P";0;0;3578;204;"03";"10";FALSE
"03600";"AVENIDA CENTRO EXCURSIONISTA, S/N";"L-D: 06:00-22:00";38.470083;"ELDA";-0.80625;"D";"Elda";NA;NA;NA;NA;NA;1.409;NA;1.459;NA;1.519;1.559;NA;1.629;NA;"ALICANTE";"OM";"REPSOL";"P";0;0;13688;204;"03";"10";FALSE
"03509";"AVENIDA FEDERICO GARCIA LORCA, 21";"L-D: 06:00-22:00";38.538722;"FINESTRAT";-0.172889;"D";"Finestrat";NA;NA;NA;NA;NA;1.409;NA;1.499;NA;1.549;NA;NA;1.699;NA;"ALICANTE";"OM";"REPSOL";"P";0;0;3697;207;"03";"10";FALSE
"03509";"AVENIDA PICASSO, 41";"L-D: 24H";38.533194;"FINESTRAT";-0.172639;"D";"Finestrat";NA;NA;NA;NA;NA;1.247;NA;NA;NA;1.399;NA;NA;NA;NA;"ALICANTE";"dm";"PETROPRIX";"P";0;0;13032;207;"03";"10";TRUE
"03509";"AVENIDA MIGUEL HERNÁNDEZ, 11";"L-D: 24H";38.539417;"FINESTRAT";-0.170444;"D";"Finestrat";NA;NA;NA;NA;NA;1.245;NA;NA;NA;1.395;NA;NA;NA;NA;"ALICANTE";"dm";"GM OIL";"P";0;0;15028;207;"03";"10";TRUE
"03509";"CARRETERA NUEVA FINESTRATA LA CALA KM. 5";"L-D: 24H";38.537389;"FINESTRAT";-0.175167;"N";"Finestrat";NA;NA;NA;NA;NA;1.369;NA;1.399;NA;1.519;NA;NA;1.689;NA;"ALICANTE";"dm";"CARREFOUR";"P";0;0;1951;207;"03";"10";TRUE
"03509";"AVENIDA PICASSO, 3";"L-D: 24H";38.533722;"FINESTRAT";-0.17275;"N";"Finestrat";NA;NA;NA;NA;NA;1.389;NA;1.479;NA;1.539;NA;NA;1.689;NA;"ALICANTE";"dm";"REPSOL";"P";0;0;12061;207;"03";"10";FALSE
"03509";"AVENIDA PAIS VALENCIA, 20";"L-D: 07:00-23:00";38.536444;"FINESTRAT";-0.180222;"N";"Finestrat";NA;NA;NA;NA;NA;1.349;NA;1.419;NA;1.498;NA;NA;1.598;NA;"ALICANTE";"dm";"ZARCAR";"P";0;0;11126;207;"03";"10";TRUE
"03509";"AVENIDA AUXIAS MARCH, SN";"L: 07:00-23:00; M-D: 06:00-22:00";38.534806;"FINESTRAT";-0.16975;"D";"Finestrat";NA;NA;NA;NA;NA;1.399;NA;1.465;NA;1.529;NA;NA;1.599;NA;"ALICANTE";"dm";"CEPSA";"P";0;0;11913;207;"03";"10";FALSE
"03179";"CALLE ACEQUIA DEL RIO, 37";"L-D: 24H";38.087889;"FORMENTERA DEL SEGURA";-0.730694;"I";"Formentera del Segura";NA;NA;NA;NA;NA;1.405;NA;1.495;NA;1.535;NA;NA;1.677;NA;"ALICANTE";"dm";"BP LOS PALACIOS";"P";0;0;3644;209;"03";"10";TRUE
"03179";"POLIGONO LOS NAZARIOS, C/LOS NAZARIOS, 8";"L-D: 06:30-22:30";38.087611;"FORMENTERA DEL SEGURA";-0.736889;"N";"Formentera del Segura";NA;NA;NA;NA;NA;1.289;NA;1.349;NA;1.409;1.489;NA;NA;NA;"ALICANTE";"dm";"GASOLINERA DE FORMENTERA";"P";0;0;14525;209;"03";"10";TRUE
"03740";"CARRETERA N-332 KM. 187,5";"L-D: 07:00-21:00";38.768111;"GATA DE GORGOS";0.098639;"D";"Gata de Gorgos";NA;NA;NA;NA;NA;1.389;NA;1.479;NA;1.519;NA;NA;NA;NA;"ALICANTE";"OM";"REPSOL";"P";0;0;3655;211;"03";"10";FALSE
"03348";"CALLE RIO EBRO, 1";"L-D: 00:00-23:59";38.154389;"GRANJA DE ROCAMORA";-0.882139;"N";"Granja de Rocamora";NA;NA;NA;NA;NA;1.299;NA;NA;NA;1.449;NA;NA;NA;NA;"ALICANTE";"dm";"JOSBERFUEL";"P";0;0;14956;213;"03";"10";TRUE
"03348";"AVENIDA JUAN CARLOS I, S/N";"L-D: 24H";38.156;"GRANJA DE ROCAMORA";-0.889806;"N";"Granja de Rocamora";NA;NA;NA;NA;NA;1.379;NA;1.449;NA;1.499;NA;NA;NA;NA;"ALICANTE";"OM";"GALP";"P";0;0;1942;213;"03";"10";FALSE
"03140";"CARRETERA N-332 KM. 32,7";"L-D: 06:30-22:30";38.099472;"GUARDAMAR DEL SEGURA";-0.663861;"I";"Guardamar del Segura";NA;NA;NA;NA;NA;1.369;NA;1.469;NA;1.519;NA;NA;1.659;NA;"ALICANTE";"dm";"REPSOL";"P";0;0;11392;214;"03";"10";FALSE
"03140";"CARRETERA CV 895 KM. 5,1";"L-S: 07:00-22:00; D: 08:00-22:00";38.062278;"GUARDAMAR DEL SEGURA";-0.673472;"D";"Guardamar del Segura";NA;NA;NA;NA;NA;1.379;0.999;1.469;NA;1.519;NA;NA;NA;NA;"ALICANTE";"dm";"CEPSA";"P";0;0;3443;214;"03";"10";FALSE
"03140";"PARTIDA LA REDONDA, S/N";"L-D: 06:00-23:00";38.094028;"GUARDAMAR DEL SEGURA";-0.66075;"D";"Guardamar del Segura";NA;NA;NA;NA;NA;1.379;NA;1.469;NA;1.519;NA;NA;1.669;NA;"ALICANTE";"dm";"GÓMEZ Y SIRVENT";"P";0;0;10502;214;"03";"10";TRUE
"03140";"CL MADRID, 20-24";"L-D: 07:00-23:00";38.095639;"GUARDAMAR DEL SEGURA";-0.659111;"D";"Guardamar del Segura";NA;NA;NA;NA;0.899;1.375;NA;1.465;NA;1.529;NA;NA;1.679;NA;"ALICANTE";"OM";"REPSOL";"P";0;0;3694;214;"03";"10";FALSE
"03140";"CARRETERA NACIONAL 332 KM. 65,968";"L-D: 07:00-22:00";38.045;"GUARDAMAR DEL SEGURA";-0.659222;"I";"Guardamar del Segura";NA;NA;NA;NA;NA;1.389;NA;1.455;NA;1.518;1.578;NA;NA;NA;"ALICANTE";"OM";"CEPSA";"P";0;0;9303;214;"03";"10";FALSE
"03140";"CALLE FORNERS, 27";"L-D: 24H";38.090917;"GUARDAMAR DEL SEGURA";-0.660611;"D";"Guardamar del Segura";NA;NA;NA;NA;NA;1.309;NA;NA;NA;1.449;NA;NA;NA;NA;"ALICANTE";"dm";"SEVEN OIL";"P";0;0;14711;214;"03";"10";TRUE
"03140";"CARRETERA N-332 KM. 32,7";"L-D: 06:30-22:30";38.099333;"GUARDAMAR DEL SEGURA";-0.664444;"D";"Guardamar del Segura";NA;NA;NA;NA;NA;1.369;NA;NA;NA;1.519;NA;NA;NA;NA;"ALICANTE";"dm";"REPSOL";"P";0;0;3657;214;"03";"10";FALSE
"03688";"AVINGUDA VIRGEN DE LAS NIEVES, S/N";"L-S: 06:00-22:00";38.310167;"HONDON DE LAS NIEVES";-0.849528;"D";"Hondón de las Nieves";NA;NA;NA;NA;NA;1.369;0.999;1.429;NA;1.499;NA;NA;NA;NA;"ALICANTE";"dm";"REPSOL";"P";0;0;3572;208;"03";"10";FALSE
"03689";"CARRETERA CTRA. ARCHENA KM. 32";"L-D: 06:30-21:00";38.277611;"HONDON DE LOS FRAILES";-0.920417;"N";"Hondón de los Frailes";NA;NA;NA;NA;NA;1.329;NA;1.389;NA;1.449;NA;NA;NA;NA;"ALICANTE";"dm";"SANTA CRUZ";"P";0;0;1911;215;"03";"10";TRUE
"03440";"CALLE CARMEN MARIN GAITE, 10";"L-D: 24H";38.614333;"IBI";-0.578222;"D";"Ibi";NA;NA;NA;NA;NA;1.279;NA;1.399;NA;1.469;NA;NA;NA;NA;"ALICANTE";"dm";"NEFT";"P";0;0;15018;216;"03";"10";TRUE
"03440";"AV DE LA PROVIDENCIA S/N";"L-D: 06:00-22:00";38.6165;"IBI";-0.585583;"N";"Ibi";NA;NA;NA;NA;NA;1.409;NA;1.499;NA;1.579;NA;NA;1.721;NA;"ALICANTE";"dm";"BP IBI";"P";0;0;3467;216;"03";"10";TRUE
"03440";"CALLE LEON (POLIGONO INDUSTRIAL L ALFAÇ III, 3";"L-D: 06:00-22:00";38.607972;"IBI";-0.593472;"N";"Ibi";NA;NA;NA;NA;NA;1.405;NA;1.471;NA;1.579;NA;NA;NA;NA;"ALICANTE";"dm";"CEPSA";"P";0;0;11271;216;"03";"10";FALSE
"03440";"AVENIDA JUAN CARLOS I, 2";"L-S: 06:00-22:00; D: 07:00-15:00";38.626556;"IBI";-0.567917;"I";"Ibi";NA;NA;NA;NA;NA;1.409;NA;1.499;NA;1.569;NA;NA;1.699;NA;"ALICANTE";"OM";"REPSOL";"P";0;0;3635;216;"03";"10";FALSE
"03440";"AVENIDA LA PROVINCIA, N";"L-D: 06:00-22:00";38.616889;"IBI";-0.585333;"D";"Ibi";NA;NA;NA;NA;NA;1.369;0.92;NA;NA;1.539;NA;NA;1.65;NA;"ALICANTE";"dm";"E.S. CAÑIZARES";"P";0;0;10305;216;"03";"10";TRUE
"03310";"CARRETERA CV-95 KM. 10";"L-V: 07:00-19:00; S: 08:00-13:00";38.041222;"JACARILLA";-0.855611;"I";"Jacarilla";NA;NA;NA;NA;NA;1.379;NA;NA;NA;1.499;NA;NA;1.599;NA;"ALICANTE";"dm";"BP JACARILLA";"P";0;0;10463;217;"03";"10";TRUE
"03310";"CARRETERA JACARILLA-BENEJUZAR KM. 2,5";"L-D: 24H";38.062972;"JACARILLA";-0.859028;"D";"Jacarilla";NA;NA;NA;NA;NA;1.379;1.049;1.449;NA;1.529;NA;NA;NA;NA;"ALICANTE";"dm";"BP PETROBENE";"P";0;0;10026;217;"03";"10";TRUE
"03727";"AVDA. GENERALITAT VALENCIANA, 4";"L: 06:00-22:00";38.738444;"JALON";-0.009028;"D";"Jalón/Xaló";NA;NA;NA;NA;NA;1.389;1.009;1.455;NA;1.518;NA;NA;NA;NA;"ALICANTE";"OM";"A.ESTELA";"P";0;0;10976;218;"03";"10";TRUE
"03730";"AVENIDA DEL PLA, 77";"L-D: 07:00-23:00";38.784944;"JÁVEA/XÀBIA";0.178667;"I";"Jávea/Xàbia";NA;NA;NA;NA;NA;1.349;NA;1.415;NA;1.468;1.528;NA;NA;NA;"ALICANTE";"OM";"CEPSA";"P";0;0;11685;219;"03";"10";FALSE
"03730";"AVENIDA DEL PUERTO, 36";"L-D: 07:00-22:00";38.79425;"JÁVEA/XÀBIA";0.177222;"D";"Jávea/Xàbia";NA;NA;NA;NA;NA;1.379;NA;1.469;NA;1.519;NA;NA;1.669;NA;"ALICANTE";"OM";"REPSOL";"P";0;0;3529;219;"03";"10";FALSE
"03730";"CARRETERA CV-739 KM. 1,5";"L-D: 06:00-22:00";38.781861;"JÁVEA/XÀBIA";0.179444;"D";"Jávea/Xàbia";NA;NA;NA;NA;0.899;1.379;NA;1.469;NA;1.509;1.549;NA;1.659;NA;"ALICANTE";"OM";"REPSOL";"P";0;0;3472;219;"03";"10";FALSE
"03730";"CARRETERA CV-734 KM. 4,6";"L-D: 06:00-22:00";38.776083;"JÁVEA/XÀBIA";0.119861;"D";"Jávea/Xàbia";NA;NA;NA;NA;NA;1.379;NA;1.469;NA;1.519;NA;NA;1.669;NA;"ALICANTE";"OM";"PETRONOR";"P";0;0;3474;219;"03";"10";TRUE
"03730";"CARRETERA CV-739 KM. 2,9";"L-D: 06:00-22:00";38.770556;"JÁVEA/XÀBIA";0.186361;"D";"Jávea/Xàbia";NA;NA;NA;NA;NA;1.379;NA;1.469;NA;1.509;NA;NA;1.659;NA;"ALICANTE";"OM";"REPSOL";"P";0;0;3681;219;"03";"10";FALSE
"03730";"AVENIDA VALENCIA, SN";"L-D: 06:00-22:00";38.785444;"JÁVEA/XÀBIA";0.159972;"I";"Jávea/Xàbia";NA;NA;NA;NA;NA;1.379;NA;1.469;NA;1.519;NA;NA;1.669;NA;"ALICANTE";"OM";"REPSOL";"P";0;0;3682;219;"03";"10";FALSE
"03730";"CARRETERA JAVEA BENITACHELL KM. 7,093";"L-D: 07:00-21:30";38.74075;"JÁVEA/XÀBIA";0.150944;"N";"Jávea/Xàbia";NA;NA;NA;NA;NA;1.379;NA;1.449;NA;1.518;NA;NA;1.669;NA;"ALICANTE";"dm";"BP";"P";0;0;3448;219;"03";"10";FALSE
"03730";"CALLE BRUSELAS, 4";"L-D: 24H";38.785667;"JÁVEA/XÀBIA";0.174972;"D";"Jávea/Xàbia";NA;NA;NA;NA;NA;1.309;NA;NA;NA;1.429;NA;NA;NA;NA;"ALICANTE";"dm";"ECO COMBUSTIBLE 24H LOW COST";"P";0;0;12760;219;"03";"10";TRUE
"03730";"AVENIDA DEL TRENC D'ALBA, 47";"L-D: 24H";38.788917;"JÁVEA/XÀBIA";0.170861;"N";"Jávea/Xàbia";NA;NA;NA;NA;NA;1.307;NA;NA;NA;1.437;NA;NA;NA;NA;"ALICANTE";"dm";"Q8";"P";0;0;15039;219;"03";"10";TRUE
"03730";"AVENIDA PALMELA, 47";"L-D: 24H";38.787472;"JÁVEA/XÀBIA";0.167583;"D";"Jávea/Xàbia";NA;NA;NA;NA;NA;1.279;NA;NA;NA;1.409;NA;NA;NA;NA;"ALICANTE";"dm";"PLENOIL";"P";0;0;14713;219;"03";"10";TRUE
"03670";"AUTOVIA A-31 KM. 216";"L-D: 24H";38.387917;"MONFORTE DEL CID";-0.736806;"I";"Monforte del Cid";NA;NA;NA;NA;NA;1.399;NA;1.489;NA;1.529;NA;NA;1.671;NA;"ALICANTE";"dm";"BP";"P";0;0;3607;224;"03";"10";FALSE
"03670";"AUTOVIA A-31 KM. 220";"L-D: 24H";38.369833;"MONFORTE DEL CID";-0.704556;"I";"Monforte del Cid";NA;NA;NA;NA;NA;1.399;NA;1.466;NA;1.534;NA;NA;NA;NA;"ALICANTE";"dm";"CEPSA";"P";0;0;3425;224;"03";"10";FALSE
"03670";"AUTOVIA A-31 KM. 220";"L-D: 24H";38.369306;"MONFORTE DEL CID";-0.704611;"D";"Monforte del Cid";NA;NA;NA;NA;NA;1.399;NA;1.466;NA;1.534;1.594;NA;NA;NA;"ALICANTE";"dm";"CEPSA";"P";0;0;3424;224;"03";"10";FALSE
"03670";"GLORIETA JORGE JUAN, 86";"L-S: 06:00-21:00; D: 07:00-14:00";38.376306;"MONFORTE DEL CID";-0.773694;"D";"Monforte del Cid";NA;NA;NA;NA;NA;1.389;1.109;1.479;NA;1.529;NA;NA;NA;NA;"ALICANTE";"dm";"BP";"P";0;0;12152;224;"03";"10";FALSE
"03670";"CAMINO CAMINO AZAGADOR, 2";"L-D: 06:00-00:00";38.380861;"MONFORTE DEL CID";-0.723111;"N";"Monforte del Cid";NA;NA;NA;NA;NA;1.355;0.975;NA;NA;NA;NA;NA;NA;NA;"ALICANTE";"dm";"COOPERATIVA V. AGRICOLA MONFORTE DEL CID";"P";0;0;7979;224;"03";"10";TRUE
"03640";"CARRETERA CR 3213 KM. 12";"L-D: 06:00-22:00";38.424667;"MONOVAR";-0.940028;"I";"Monóvar/Monòver";NA;NA;NA;NA;NA;1.389;0.986;1.439;NA;1.509;NA;NA;1.619;NA;"ALICANTE";"OM";"REPSOL";"P";0;0;3554;225;"03";"10";FALSE
"03640";"CARRETERA NOVELDA-MONOVAR KM. 9,6";"L-D: 07:00-22:00";38.428444;"MONOVAR";-0.838083;"I";"Monóvar/Monòver";NA;NA;NA;NA;NA;1.36;NA;1.38;NA;1.499;NA;NA;NA;NA;"ALICANTE";"dm";"E.S. TEXAS";"P";0;0;10300;225;"03";"10";TRUE
"03187";"CR CV-945  LO BLANC, 1,3 (A-340 km 1,36)";"L-D: 24H";38.029472;"MONTESINOS (LOS)";-0.730944;"I";"Montesinos (Los)";NA;NA;NA;NA;NA;1.379;0.999;1.479;NA;1.519;NA;NA;1.659;NA;"ALICANTE";"dm";"REPSOL";"P";0;0;3460;226;"03";"10";FALSE
"03830";"CARRETERA N-340 KM. 808,6";"L-S: 07:00-22:00; D: 08:00-22:00";38.781417;"MURO DEL ALCOY";-0.447889;"D";"Muro de Alcoy";NA;NA;NA;NA;NA;1.389;1.039;1.455;NA;1.524;1.584;NA;1.656;NA;"ALICANTE";"OM";"CEPSA";"P";0;0;3633;228;"03";"10";FALSE
"03830";"CARRETERA N-340 KM. 808,6";"L-V: 06:00-22:00; S: 06:00-16:00";38.781889;"MURO DEL ALCOY";-0.448444;"I";"Muro de Alcoy";NA;NA;NA;NA;NA;1.389;1.039;1.455;NA;1.524;1.584;NA;1.656;NA;"ALICANTE";"OM";"CEPSA";"P";0;0;3634;228;"03";"10";FALSE
"03830";"CARRETERA CV 700 KM. 6";"L-D: 06:00-22:00";38.782028;"MURO DEL ALCOY";-0.424694;"D";"Muro de Alcoy";NA;NA;NA;NA;NA;1.389;NA;1.459;NA;1.519;1.589;NA;NA;NA;"ALICANTE";"dm";"CEPSA";"P";0;0;11765;228;"03";"10";FALSE
"03830";"CALLE DEL TRANSPORT, 25";"L-D: 24H";38.7795;"MURO DEL ALCOY";-0.447417;"D";"Muro de Alcoy";NA;NA;NA;NA;NA;1.298;NA;NA;NA;1.438;NA;NA;NA;NA;"ALICANTE";"dm";"GASOLPOP,S.L.";"P";0;0;14427;228;"03";"10";TRUE
"03830";"AVENIDA PAIS VALENCIÀ, 40";"L-D: 24H";38.781611;"MURO DEL ALCOY";-0.430667;"I";"Muro de Alcoy";NA;NA;NA;NA;NA;1.309;NA;NA;NA;1.449;NA;NA;NA;NA;"ALICANTE";"dm";".ES CARBURANTES";"P";0;0;14518;228;"03";"10";TRUE
"03110";"PARTIDA SAN PERET, 26";"L-D: 24H";38.4245;"MUTXAMEL";-0.431389;"N";"Mutxamel";NA;NA;NA;NA;NA;1.379;NA;1.469;NA;1.549;NA;NA;1.691;NA;"ALICANTE";"dm";"BP";"P";0;0;11920;229;"03";"10";FALSE
"03110";"AVENIDA ALCOY, S/N";"L-D: 06:00-22:00";38.426222;"MUTXAMEL";-0.449833;"D";"Mutxamel";NA;NA;NA;NA;NA;1.389;1.039;1.455;NA;1.525;NA;NA;1.657;NA;"ALICANTE";"OM";"CEPSA";"P";0;0;3418;229;"03";"10";FALSE
"03110";"AVENIDA ALCOY, S/N";"L-D: 08:00-13:00 y 16:00-19:00";38.426528;"MUTXAMEL";-0.450361;"I";"Mutxamel";NA;NA;NA;NA;NA;1.389;1.039;1.455;NA;1.525;NA;NA;1.657;NA;"ALICANTE";"OM";"CEPSA";"P";0;0;3419;229;"03";"10";FALSE
"03110";"CARRETERA CV 800 KM. 0,750";"L-D: 06:00-22:00";38.427167;"MUTXAMEL";-0.434583;"I";"Mutxamel";NA;NA;NA;NA;NA;1.389;NA;1.449;NA;1.545;1.595;NA;1.659;NA;"ALICANTE";"dm";"REPSOL";"P";0;0;14574;229;"03";"10";FALSE
"03110";"CALLE OSSA MAJOR, 1";"L-D: 07:00-23:00";38.407;"MUTXAMEL";-0.463917;"D";"Mutxamel";NA;NA;NA;NA;NA;1.389;NA;1.479;NA;1.559;NA;NA;1.701;NA;"ALICANTE";"OM";"BP MUCHAMIEL";"P";0;0;12827;229;"03";"10";TRUE
"03660";"AVENIDA JESUS NAVARRO JOVER, 13";"L-D: 24H";38.390028;"NOVELDA";-0.752167;"I";"Novelda";NA;NA;NA;NA;NA;1.279;NA;NA;NA;1.409;NA;NA;NA;NA;"ALICANTE";"dm";"QFS";"P";0;0;13530;230;"03";"10";TRUE
"03660";"POLIGONO SANTA FE C/1 ESQUINA C/2, 1,2";"L-V: 06:00-21:00; S: 07:00-21:00; D: 07:00-14:00";38.385639;"NOVELDA";-0.776833;"N";"Novelda";NA;NA;NA;NA;NA;1.389;NA;1.479;NA;1.529;NA;NA;NA;NA;"ALICANTE";"dm";"BP";"P";0;0;1936;230;"03";"10";FALSE
"03660";"AVENIDA RIO VINALOPO, 1";"L-D: 06:00-23:00";38.38825;"NOVELDA";-0.755694;"N";"Novelda";NA;NA;NA;NA;NA;1.389;NA;1.479;NA;1.509;NA;NA;1.651;NA;"ALICANTE";"dm";"BP";"P";0;0;3710;230;"03";"10";FALSE
